시설명,시도명,시군구명,시군구코드,소재지도로명주소,소재지지번주소,위도,경도,설치장소설명,평일운영시작시각,평일운영종료시각,토요일운영시작시각,토요일운영종료시각,공휴일운영시작시각,공휴일운영종료시각,동시사용가능대수,공기주입가능여부,휴대전화충전가능여부,관리기관명,관리기관전화번호,데이터기준일자,제공기관코드,제공기관명
전주 평화사회복지관,전라북도,전주시,46400,전라북도 전주시 완산구 덕적골2길 25,전라북도 전주시 완산구 평화동1가 445-6,35.79561646,127.1418577,실내 1층,09:00,18:00,00:00,00:00,00:00,00:00,4,Y,N,전라북도 전주시 평화사회복지관,063-286-4408,2022-08-23,4640000,전라북도 전주시
전주동물원,전라북도,전주시,46400,전라북도 전주시 덕진구 소리로 68,전라북도 전주시 덕진구 덕진동1가 73-48,35.85730635,127.1440769,입구 안내소,09:00,18:00,09:00,18:00,09:00,18:00,4,Y,N,전라북도 전주시 전주동물원,063-281-5756,2022-08-23,4640000,전라북도 전주시
전주시 덕진구청,전라북도,전주시,46400,전라북도 전주시 덕진구 벚꽃로 55,전라북도 전주시 덕진구 진북동 416-12,35.829353,127.1351746,1층 로비,09:00,18:00,09:00,18:00,09:00,18:00,4,Y,N,전라북도 전주시 덕진구청,063-270-6310,2022-08-23,4640000,전라북도 전주시
전주시 완산구청,전라북도,전주시,46400,전라북도 전주시 완산구 서원로 232,전라북도 전주시 완산구 효자동1가 595,35.812177,127.119785,1층 로비,09:00,18:00,00:00,00:00,00:00,00:00,4,Y,N,전라북도 전주시 완산구청,063-220-5156,2022-08-23,4640000,전라북도 전주시
전주시장애인정보교환센터,전라북도,전주시,46400,전라북도 전주시 완산구 덕적골2길 33,전라북도 전주시 완산구 평화동1가 445-6,35.79561951,127.141334,1층 로비,09:00,18:00,00:00,00:00,00:00,00:00,4,Y,N,전주시장애인정보교환센터,063-283-6633,2022-08-23,4640000,전라북도 전주시
전주시청,전라북도,전주시,46400,전라북도 전주시 완산구 노송광장로 29(본관 강당 출입방면),전라북도 전주시 완산구 서노송동 619-11,35.82426982,127.1468073,1층 입구(실외),09:00,18:00,00:00,00:00,00:00,00:00,4,Y,N,전라북도 전주시청,063-281-5193,2022-08-23,4640000,전라북도 전주시
전주역,전라북도,전주시,46400,전라북도 전주시 덕진구 동부대로 680,전라북도 전주시 덕진구 우아동3가 235-10,35.84968891,127.1634706,1층 로비,09:00,18:00,09:00,18:00,09:00,18:00,8,Y,N,전라북도 전주시 전주역,063-249-7016,2022-08-23,4640000,전라북도 전주시
전주장애인종합복지관,전라북도,전주시,46400,전라북도 전주시 완산구 백제대로 20-41,전라북도 전주시 완산구 평화동1가 599-1,35.797513,127.132346,실내 1층,09:00,18:00,00:00,00:00,00:00,00:00,8,Y,N,전라북도 전주시 전주장애인종합복지관,063-229-0062,2022-08-23,4640000,전라북도 전주시
전주종합경기장(지체장애인협회),전라북도,전주시,46400,"전라북도 전주시 덕진구 기린대로 451, 130호~131호",전라북도 전주시 덕진구 덕진동1가 1220-1,35.84075454,127.127127,1층 사무실 안,09:00,18:00,00:00,00:00,00:00,00:00,4,Y,N,전라북도 전주시 종합경기장(지체장애인협회),063-284-8898,2022-08-23,4640000,전라북도 전주시
조촌동 주민센터,전라북도,전주시,46400,전라북도 전주시 덕진구 쪽구름로 150,전라북도 전주시 덕진구 반월동 394,35.87452989,127.0691976,1층 로비 안,09:00,18:00,00:00,00:00,00:00,00:00,4,Y,N,전라북도 전주시 조촌동 주민센터,063-279-7367,2022-08-23,4640000,전라북도 전주시
중앙동 주민센터,전라북도,전주시,46400,전라북도 전주시 완산구 태평3길 43-17,전라북도 전주시 완산구 태평동 32,35.82353305,127.1406237,1층 사무실 안,09:00,18:00,00:00,00:00,00:00,00:00,4,Y,N,전라북도 전주시 중앙동 주민센터,063-220-1712,2022-08-23,4640000,전라북도 전주시
중증장애인지역생활지원센터,전라북도,전주시,46400,"전라북도 전주시 덕진구 한배미로 16, 3층(열린빌딩)",전라북도 전주시 덕진구 인후동1가 938-2,35.82486572,127.166655,3층 로비 안,09:00,18:00,00:00,00:00,00:00,00:00,4,Y,N,전라북도 전주시 중증장애인지역생활지원센터,063-908-9005,2022-08-23,4640000,전라북도 전주시
중화산1동 주민센터,전라북도,전주시,46400,전라북도 전주시 완산구 한두평3길 16,전라북도 전주시 완산구 중화산동2가 662,35.81460332,127.1248291,1층 사무실 안,09:00,18:00,00:00,00:00,00:00,00:00,4,Y,N,전라북도 전주시 중화산1동 주민센터,063-220-1800,2022-08-23,4640000,전라북도 전주시
중화산2동 주민센터,전라북도,전주시,46400,전라북도 전주시 완산구 화산천변로 30,전라북도 전주시 완산구 중화산동2가 752-1,35.82167632,127.1163849,1층 사무실 안,09:00,18:00,00:00,00:00,00:00,00:00,4,Y,N,전라북도 전주시 중화산2동 주민센터,063-220-1812,2022-08-23,4640000,전라북도 전주시
진북동 주민센터,전라북도,전주시,46400,전라북도 전주시 덕진구 벚꽃1길 8,전라북도 전주시 덕진구 진북동 1042-4,35.82790004,127.1314403,1층 사무실 안,09:00,18:00,00:00,00:00,00:00,00:00,4,Y,N,전라북도 전주시 진북동 주민센터,063-279-7106,2022-08-23,4640000,전라북도 전주시
팔복동 주민센터,전라북도,전주시,46400,전라북도 전주시 덕진구 신복5길 6,전라북도 전주시 덕진구 팔복동1가 138-6,35.85366167,127.1062813,1층 사무실 안,09:00,18:00,00:00,00:00,00:00,00:00,4,Y,N,전라북도 전주시 팔복동 주민센터,063-279-7252,2022-08-23,4640000,전라북도 전주시
평화1동 주민센터,전라북도,전주시,46400,전라북도 전주시 완산구 장승배기로 256,전라북도 전주시 완산구 평화동1가 445-8,35.79809333,127.1403061,1층 사무실 안,09:00,18:00,00:00,00:00,00:00,00:00,4,Y,N,전라북도 전주시 평화1동 주민센터,063-220-1828,2022-08-23,4640000,전라북도 전주시
평화2동 주민센터,전라북도,전주시,46400,전라북도 전주시 완산구 평화18길 14-16,전라북도 전주시 완산구 평화동1가 720-4,35.79554673,127.1352679,1층 입구 안,09:00,18:00,00:00,00:00,00:00,00:00,4,Y,N,전라북도 전주시 평화2동 주민센터,063-220-1852,2022-08-23,4640000,전라북도 전주시
평화보건지소,전라북도,전주시,46400,전라북도 전주시 완산구 평화13길 7(로비),전라북도 전주시 완산구 평화동2가 862-6,35.790764,127.1366936,1층 로비,09:00,18:00,00:00,00:00,00:00,00:00,4,Y,N,전라북도 전주시 평화보건지소,063-281-6633,2022-08-23,4640000,전라북도 전주시
학산종합사회복지관,전라북도,전주시,46400,전라북도 전주시 완산구 모악로 4726,전라북도 전주시 완산구 평화동2가 230-27,35.79111927,127.132869,1층 로비,09:00,18:00,00:00,00:00,00:00,00:00,4,Y,N,전라북도 전주시 학산종합사회복지관,063-223-9999,2022-08-23,4640000,전라북도 전주시
혁신동 주민센터,전라북도,전주시,46400,전라북도 전주시 덕진구 오공로 43-24,전라북도 전주시 덕진구 중동 775-5,35.83754593,127.0613112,1층 사무실 안,09:00,18:00,00:00,00:00,00:00,00:00,4,Y,N,전라북도 전주시 혁신동 주민센터,063-279-7407,2022-08-23,4640000,전라북도 전주시
동서학동 주민센터,전라북도,전주시,46400,전라북도 전주시 완산구 서학로 26,전라북도 전주시 완산구 동서학동 150,35.80950159,127.152243,1층 입구 안,09:00,18:00,00:00,00:00,00:00,00:00,4,Y,N,전라북도 전주시 동서학동 주민센터,063-220-1766,2022-08-23,4640000,전라북도 전주시
삼천1동 주민센터,전라북도,전주시,46400,전라북도 전주시 완산구 성지산로 33,전라북도 전주시 완산구 삼천동1가 573-2,35.80082273,127.1215955,1층 사무실 안,09:00,18:00,00:00,00:00,00:00,00:00,4,Y,N,전라북도 전주시 삼천1동 주민센터,063-220-1906,2022-08-23,4640000,전라북도 전주시
삼천2동 주민센터,전라북도,전주시,46400,전라북도 전주시 완산구 거마중앙로 49,전라북도 전주시 완산구 삼천동1가 633,35.79635279,127.1223413,1층 사무실 안,09:00,18:00,00:00,00:00,00:00,00:00,4,Y,N,전라북도 전주시 삼천2동 주민센터,063-220-1917,2022-08-23,4640000,전라북도 전주시
삼천3동 주민센터,전라북도,전주시,46400,전라북도 전주시 완산구 삼천천변2길 37,전라북도 전주시 완산구 삼천동1가 287-21,35.79689237,127.1142868,1층 사무실 안,09:00,18:00,00:00,00:00,00:00,00:00,4,Y,N,전라북도 전주시 삼천3동 주민센터,063-220-1940,2022-08-23,4640000,전라북도 전주시
새빛장애인자립생활센터,전라북도,전주시,46400,"전라북도 전주시 완산구 모악로 4692, 3층(덕수빌딩)",전라북도 전주시 완산구 평화동2가 302-3,35.78830843,127.1309312,3층 사무실 안,09:00,18:00,00:00,00:00,00:00,00:00,4,Y,N,전라북도 전주시 새빛장애인자립생활센터,063-237-2763,2022-08-23,4640000,전라북도 전주시
서서학동 주민센터,전라북도,전주시,46400,전라북도 전주시 완산구 공수내로 24,전라북도 전주시 완산구 서서학동 23-8,35.80575661,127.1486909,1층 사무실 안,09:00,18:00,00:00,00:00,00:00,00:00,4,Y,N,전라북도 전주시 서서학동 주민센터,063-220-1786,2022-08-23,4640000,전라북도 전주시
군자역,서울특별시,광진구,11215,서울특별시 광진구 천호대로 550,,37.55720376,127.0794903,7번출구 지상용 엘리베이터 지하 출입구,06:00,23:00,06:00,23:00,06:00,23:00,2,Y,Y,서울특별시 광진구,02-450-7529,2022-06-22,3040000,서울특별시 광진구
서신동 주민센터,전라북도,전주시,46400,전라북도 전주시 완산구 서신천변14길 10,전라북도 전주시 완산구 서신동 804,35.83102035,127.1153058,1층 사무실 안,09:00,18:00,00:00,00:00,00:00,00:00,4,Y,N,전라북도 전주시 서신동 주민센터,063-220-1893,2022-08-23,4640000,전라북도 전주시
송천1동 주민센터,전라북도,전주시,46400,전라북도 전주시 덕진구 송천중앙로 116,전라북도 전주시 덕진구 송천동1가 395-28,35.85711883,127.1210138,1층 사무실 안,09:00,18:00,00:00,00:00,00:00,00:00,4,Y,N,전라북도 전주시 송천1동 주민센터,063-279-7326,2022-08-23,4640000,전라북도 전주시
송천2동 주민센터,전라북도,전주시,46400,전라북도 전주시 덕진구 두간9길 6,전라북도 전주시 덕진구 송천동1가 829-1,35.86490506,127.1155849,1층 입구 안,09:00,18:00,00:00,00:00,00:00,00:00,4,Y,N,전라북도 전주시 송천2동 주민센터,063-279-7347,2022-08-23,4640000,전라북도 전주시
어울림국민체육센터,전라북도,전주시,46400,전라북도 전주시 덕진구 조경단로 258-17,전라북도 전주시 덕진구 송천동1가 186,35.85501829,127.1258282,1층 로비 안,09:00,18:00,00:00,00:00,00:00,00:00,4,Y,N,전라북도 전주시 전주어울림국민체육센터,063-239-2702,2022-08-23,4640000,전라북도 전주시
오목대 관광안내소,전라북도,전주시,46400,전라북도 전주시 완산구 기린대로 99,전라북도 전주시 완산구 남노송동 100-1,35.81825046,127.1536774,안내소 내,09:00,18:00,09:00,18:00,09:00,18:00,4,Y,Y,전라북도 전주시 전주한옥마을오목대 관광안내소,063-282-1330,2022-08-23,4640000,전라북도 전주시
완산동 주민센터,전라북도,전주시,46400,전라북도 전주시 완산구 강당2길 7,전라북도 전주시 완산구 서완산동2가 71-31,35.80922981,127.1348505,1층 사무실 안,09:00,18:00,00:00,00:00,00:00,00:00,4,Y,N,전라북도 전주시 완산동 주민센터,063-220-1755,2022-08-23,4640000,전라북도 전주시
완산체련공원,전라북도,전주시,46400,전라북도 전주시 완산구 모악산자락길 22,전라북도 전주시 완산구 중인동 361-1,35.76749289,127.101535,1층 사무실 안,09:00,18:00,00:00,00:00,00:00,00:00,4,Y,N,전라북도 전주시 완산생활체육공원,063-239-2569,2022-08-23,4640000,전라북도 전주시
우아1동 주민센터,전라북도,전주시,46400,전라북도 전주시 덕진구 우아2길 25,전라북도 전주시 덕진구 우아동3가 746-67,35.84984323,127.1595686,1층 입구 안,09:00,18:00,00:00,00:00,00:00,00:00,4,Y,N,전라북도 전주시 우아1동 주민센터,063-279-7277,2022-08-23,4640000,전라북도 전주시
우아2동 주민센터,전라북도,전주시,46400,전라북도 전주시 덕진구 진버들7길 25,전라북도 전주시 덕진구 우아동2가 856-3,35.83775083,127.1670431,1층 사무실 안,09:00,18:00,00:00,00:00,00:00,00:00,4,Y,N,전라북도 전주시 우아2동 주민센터,063-279-7287,2022-08-23,4640000,전라북도 전주시
인후1동 주민센터,전라북도,전주시,46400,전라북도 전주시 덕진구 견훤로 290,전라북도 전주시 덕진구 인후동1가 766-9,35.83747597,127.1566512,1층 입구 안,09:00,18:00,00:00,00:00,00:00,00:00,4,Y,N,전라북도 전주시 인후1동 주민센터,063-279-7126,2022-08-23,4640000,전라북도 전주시
인후2동 주민센터,전라북도,전주시,46400,전라북도 전주시 덕진구 견훤왕궁로 244,전라북도 전주시 덕진구 인후동2가 26-8,35.83987035,127.1463475,1층 입구 안,09:00,18:00,00:00,00:00,00:00,00:00,4,Y,N,전라북도 전주시 인후2동 주민센터,063-279-7148,2022-08-23,4640000,전라북도 전주시
인후3동 주민센터,전라북도,전주시,46400,전라북도 전주시 덕진구 구총목로 11,전라북도 전주시 덕진구 인후동1가 886-6,35.82804257,127.1613387,1층 사무실 안,09:00,18:00,00:00,00:00,00:00,00:00,4,Y,N,전라북도 전주시 인후3동 주민센터,063-270-6858,2022-08-23,4640000,전라북도 전주시
작은자의장애인자립생활센터,전라북도,전주시,46400,"전라북도 전주시 완산구 장승배기로 342, 5층(반석빌딩)",전라북도 전주시 완산구 서서학동 359,35.80245943,127.1481815,5층 사무실 안,09:00,18:00,00:00,00:00,00:00,00:00,4,Y,N,전라북도 전주시 전북작은자의장애인자립생활센터,063-285-5538,2022-08-23,4640000,전라북도 전주시
전라북도 척수장애인재활지원센터,전라북도,전주시,46400,"전라북도 전주시 덕진구 송천3길 14, 1층(솔내문화복지관)",전라북도 전주시 덕진구 송천동1가 453-7,35.8610434,127.1199701,1층 사무실 안(솔내문화복지관),09:00,18:00,00:00,00:00,00:00,00:00,4,Y,N,전라북도 전주시 전라북도척수장애인협회,063-286-3337,2022-08-23,4640000,전라북도 전주시
전북교육청,전라북도,전주시,46400,전라북도 전주시 완산구 홍산로 111,전라북도 전주시 완산구 효자동2가 1325,35.80431685,127.1027455,1층 로비 안,09:00,18:00,00:00,00:00,00:00,00:00,4,Y,N,전라북도교육청,063-239-3438,2022-08-23,4640000,전라북도 전주시
전북도청,전라북도,전주시,46400,전라북도 전주시 완산구 효자로 225(로비 북카페),전라북도 전주시 완산구 효자동3가 1,35.81944731,127.1063738,1층 로비 북카페,09:00,18:00,00:00,00:00,00:00,00:00,4,Y,N,전라북도청,063-280-4675,2022-08-23,4640000,전라북도 전주시
전주 시외버스터미널,전라북도,전주시,46400,전라북도 전주시 덕진구 가리내로 30,전라북도 전주시 덕진구 금암동 796-5,35.83443306,127.1326898,1층 로비,09:00,18:00,09:00,18:00,09:00,18:00,4,Y,N,전라북도 전주시 전주시외버스터미널,063-270-1760,2022-08-23,4640000,전라북도 전주시
은산면행정복지센터,충청남도,부여군,45700,충청남도 부여군 은산면 충의로 690,충청남도 부여군 은산면 신대리 359-40,36.3104254,126.854221,1층 제2출입구 경사로 끝,09:00,18:00,09:00,18:00,09:00,18:00,2,Y,N,충청남도 부여군청,041-830-6401,2022-06-30,4570000,충청남도 부여군
외산면행정복지센터,충청남도,부여군,45700,충청남도 부여군 외산면 외산로 111,충청남도 부여군 외산면 만수리 15-2,36.30433826,126.7042179,1층 현관,09:00,18:00,09:00,18:00,09:00,18:00,2,N,N,충청남도 부여군청,041-830-6432,2022-06-30,4570000,충청남도 부여군
내산면행정복지센터,충청남도,부여군,45700,충청남도 부여군 내산면 성충로 982,충청남도 부여군 내산면 운치리 695-1,36.2748573,126.7805259,1층  현관,09:00,18:00,09:00,18:00,09:00,18:00,2,Y,Y,충청남도 부여군청,041-830-6462,2022-06-30,4570000,충청남도 부여군
구룡면행정복지센터,충청남도,부여군,45700,충청남도 부여군 구룡면 태양로 17,충청남도 부여군 구룡면 태양리 67-7,36.2527381,126.8132266,구룡면주민자치센터,09:00,18:00,09:00,18:00,09:00,18:00,2,N,N,충청남도 부여군청,041-830-6492,2022-06-30,4570000,충청남도 부여군
홍산면행정복지센터,충청남도,부여군,45700,충청남도 부여군 홍산면 홍산로 77,충청남도 부여군 홍산면 북촌리 414,36.21661853,126.7606612,1층 현관,09:00,18:00,09:00,18:00,09:00,18:00,2,Y,N,충청남도 부여군청,041-830-6522,2022-06-30,4570000,충청남도 부여군
옥산면행정복지센터,충청남도,부여군,45700,충청남도 부여군 옥산면 대백제로 336-6,충청남도 부여군 옥산면 안서리 368-1,36.1918212,126.7336988,1층 현관,09:00,18:00,09:00,18:00,09:00,18:00,2,Y,N,충청남도 부여군청,041-830-6551,2022-06-30,4570000,충청남도 부여군
남면행정복지센터,충청남도,부여군,45700,충청남도 부여군 남면 남성로 426,충청남도 부여군 남면 회동리 339-2,36.21194783,126.806642,1층 출입구,09:00,18:00,09:00,18:00,09:00,18:00,2,Y,N,충청남도 부여군청,041-830-6583,2022-06-30,4570000,충청남도 부여군
충화면행정복지센터,충청남도,부여군,45700,충청남도 부여군 충화면 팔충로 770,충청남도 부여군 충화면 천당리 194,36.18203697,126.8214717,1층 현관,09:00,18:00,09:00,18:00,09:00,18:00,2,N,N,충청남도 부여군청,041-830-6628,2022-06-30,4570000,충청남도 부여군
양화면행정복지센터,충청남도,부여군,45700,충청남도 부여군 양화면 입포로53번길 6,충청남도 부여군 양화면 입포리 60-8,36.13567076,126.8808527,1층 현관,09:00,18:00,09:00,18:00,09:00,18:00,2,Y,Y,충청남도 부여군청,041-830-6658,2022-06-30,4570000,충청남도 부여군
임천면행정복지센터,충청남도,부여군,45700,충청남도 부여군 임천면 성흥로97번길 23,충청남도 부여군 임천면 군사리 314-9,36.19139569,126.8950597,1층 현관,09:00,18:00,09:00,18:00,09:00,18:00,2,N,N,충청남도 부여군청,041-830-6672,2022-06-30,4570000,충청남도 부여군
장암면행정복지센터,충청남도,부여군,45700,충청남도 부여군 장암면 석동로 15,충청남도 부여군 장암면 석동리 603-1,36.24393614,126.8861949,1층 현관,09:00,18:00,09:00,18:00,09:00,18:00,1,Y,N,충청남도 부여군청,041-830-6704,2022-06-30,4570000,충청남도 부여군
세도면행정복지센터,충청남도,부여군,45700,충청남도 부여군 세도면 세도중앙로 8,충청남도 부여군 세도면 청송리 414-2,36.169653,126.9483739,1층 현관,09:00,18:00,09:00,18:00,09:00,18:00,1,Y,Y,충청남도 부여군청,041-830-6732,2022-06-30,4570000,충청남도 부여군
충주시장애인복지관,충청북도,충주시,43130,충청북도 충주시 호암대로 129,충청북도 충주시 호암동 185-4,36.958075,127.9396686,1층 로비,09:00,18:00,00:00,00:00,00:00,00:00,2,N,N,충청북도 충주시청,043-850-6821,2022-03-31,4390000,충청북도 충주시
충주시청 민원봉사실,충청북도,충주시,43130,충청북도 충주시 으뜸로 21,충청북도 충주시 금릉동 700,36.99073595,127.926555,1층 민원동 입구,09:00,18:00,00:00,00:00,00:00,00:00,2,N,N,충청북도 충주시청,043-850-6821,2022-03-31,4390000,충청북도 충주시
교현안림동 행정복지센터,충청북도,충주시,43130,충청북도 충주시 금봉대로 410,충청북도 충주시 안림동 1079-3,36.9714584,127.9476488,1층 민원실 입구,09:00,18:00,00:00,00:00,00:00,00:00,2,N,N,충청북도 충주시청,043-850-6821,2022-03-31,4390000,충청북도 충주시
부여읍행정복지센터,충청남도,부여군,45700,충청남도 부여군 부여읍 사비로 36,충청남도 부여군 부여읍 동남리 692,36.27555217,126.9111703,1층 현관,09:00,18:00,09:00,18:00,09:00,18:00,2,N,N,충청남도 부여군청,041-830-6318,2022-06-30,4570000,충청남도 부여군
규암면행정복지센터,충청남도,부여군,45700,충청남도 부여군 규암면 계백로 39,충청남도 부여군 규암면 규암리 산 12-1,36.2749717,126.8839123,1층 현관,09:00,18:00,09:00,18:00,09:00,18:00,2,N,N,충청남도 부여군청,041-830-6357,2022-06-30,4570000,충청남도 부여군
전동휠체어급속충전기,대전광역시,서구,30170,대전광역시 서구 만년로 67번길 18-13,대전광역시 서구 만년동 322,36.3683731,127.3810475,대전시지체장애인협회 서구지회,09:00,18:00,00:00,00:00,00:00,00:00,2,N,N,대전지체장애인협회,042-488-1181,2022-06-08,3660000,대전광역시 서구
전동휠체어급속충전기,대전광역시,서구,30170,대전광역시 서구 둔산서로 100(둔산동),대전광역시 서구 둔산동 1300,36.35505672,127.3833597,서구청,05:30,23:30,05:30,23:30,05:30,23:30,2,N,N,대전지체장애인협회,042-488-1181,2022-06-08,3660000,대전광역시 서구
울산광역시장애인자립생활센터,울산광역시,남구,31140,울산광역시 남구돋질로 131,울산광역시 남구 신정동 168-8,35.54022178,129.3198328,장애인복지지설,09:00,18:00,00:00,00:00,00:00,00:00,2,N,N,울산광역시 남구,052-226-6932,2022-05-31,3700000,울산광역시 남구
울산광역시지체장애인협회남구지회,울산광역시,남구,31140,울산광역시 남구 삼산중로131번길 26-1,울산광역시 남구 삼산동 1466-3,35.54464678,129.3329625,장애인복지지설,09:00,18:00,00:00,00:00,00:00,00:00,2,N,N,울산광역시 남구,052-226-6932,2022-05-31,3700000,울산광역시 남구
울산광역시시청,울산광역시,남구,31140,울산광역시 남구 중앙로 201,울산광역시 남구 신정동 646-4,35.5379449,129.3112605,장애인복지지설,09:00,18:00,00:00,00:00,00:00,00:00,2,N,N,울산광역시 남구,052-226-6932,2022-05-31,3700000,울산광역시 남구
울산광역시남구청,울산광역시,남구,31140,울산광역시 남구 돋질로233,울산광역시 남구 달동 1320-1,35.54373848,129.3295178,본관 출입문 옆,09:00,18:00,00:00,00:00,00:00,00:00,2,N,N,울산광역시 남구,052-226-6932,2022-05-31,3700000,울산광역시 남구
울산광역시 남구 신정1동 행정복지센터,울산광역시,남구,31140,울산광역시 남구 월평로 9번길 7,울산광역시 남구 신정동 639-2,35.54133993,129.3065519,출입문 옆,09:00,18:00,00:00,00:00,00:00,00:00,2,N,N,울산광역시 남구 신정1동 행정복지센터,052-226-2519,2022-05-31,3700000,울산광역시 남구
울산광역시 남구 신정2동 행정복지센터,울산광역시,남구,31140,울산광역시 남구 봉월로 20번길 9,울산광역시 남구 신정동 1210-9,35.53465621,129.3078438,출입문 옆,09:00,18:00,00:00,00:00,00:00,00:00,2,N,N,울산광역시 남구 신정2동 행정복지센터,052-226-2529,2022-05-31,3700000,울산광역시 남구
울산광역시 남구 신정3동 행정복지센터,울산광역시,남구,31140,울산광역시 남구 월평로 103번길 18,울산광역시 남구 신정동 294-4,35.54506346,129.3163833,출입문 옆,09:00,18:00,00:00,00:00,00:00,00:00,2,N,N,울산광역시 남구 신정3동 행정복지센터,052-226-2834,2022-05-31,3700000,울산광역시 남구
울산광역시 남구 신정4동 행정복지센터,울산광역시,남구,31140,울산광역시남구 수암로 64번길 16,울산광역시 남구 신정동 880-9,35.52934792,129.3144282,출입문 옆,09:00,18:00,00:00,00:00,00:00,00:00,2,N,N,울산광역시 남구 신정4동 행정복지센터,052-226-2545,2022-05-31,3700000,울산광역시 남구
황산면사무소,전라남도,해남군,46820,전라남도 해남군 황산면 시등로 70,전라남도 해남군 황산면 우항리 422-4,34.57707096,126.4367778,황산면사무소 복도에 설치되어 있음,09:00,18:00,00:00,00:00,00:00,00:00,2,Y,Y,전라남도 해남군 황산면사무소,061-531-3472,2022-04-13,4930000,전라남도 해남군
해남군청소년누림문화센터,전라남도,해남군,46820,전라남도 해남군 해남읍 군청길 4,전라남도 해남군 해남읍 성내리 4,34.57347896,126.5990654,해남군청소년누림문화센터 3층에 설치되어 있음,09:00,21:00,10:00,19:00,00:00,00:00,1,N,N,전라남도 해남군청 주민복지과,061-530-5316,2022-04-13,4930000,전라남도 해남군
해남군보건소,전라남도,해남군,46820,전라남도 해남군 해남읍 해남로 46,전라남도 해남군 해남읍 해리 186,34.57046163,126.6120439,보건소 내부에 설치되어 있음,09:00,18:00,00:00,00:00,00:00,00:00,1,N,N,전라남도 해남군 보건소,061-531-3713,2022-04-13,4930000,전라남도 해남군
해남군장애인종합복지관,전라남도,해남군,46820,전라남도 해남군 해남읍 신안길 2-20,전라남도 해남군 해남읍 고도리 44-20,34.56319321,126.6075662,해남군장애인종합복지관 내부에 설치되어 있음,09:00,18:00,00:00,00:00,00:00,00:00,1,N,N,해남군장애인종합복지관,061-536-6311,2022-04-13,4930000,전라남도 해남군
해남군노인종합복지관,전라남도,해남군,46820,전라남도 해남군 해남읍 서림길 16,전라남도 해남군 해남읍 구교리 344,34.5749783,126.5939787,해남군노인종합복지관 내부에 설치되어 있음,09:00,18:00,00:00,00:00,00:00,00:00,1,N,N,해남군노인종합복지관,061-537-0012,2022-04-13,4930000,전라남도 해남군
부천시청역(7호선),경기도,부천시,31050,경기도 부천시 길주로 221,경기도 부천시 중동 1034-5,37.50471881,126.7672298,개찰구 안쪽,05:40,23:40,05:40,23:40,05:40,23:40,2,N,N,인천교통공사,02-6311-9582,2022-04-01,3860000,경기도 부천시
장애인회관,경기도,부천시,31050,경기도 부천시 신흥로 364,경기도 부천시 내동 60-1,37.51614949,126.7758744,1층 현관문 안 옆,09:00,18:00,00:00,00:00,00:00,00:00,4,N,N,부천장애인회관담당,032-340-5305,2022-04-01,3860000,경기도 부천시
부천시청(시비설치),경기도,부천시,31050,경기도 부천시 길주로 210,경기도 부천시 중동 1156,37.50358103,126.7653372,장애인복지과 입구,09:00,18:00,00:00,00:00,00:00,00:00,2,Y,Y,경기도 부천시청 장애인담당,032-625-2905,2022-04-01,3860000,경기도 부천시
복사골문화센터(시비설치),경기도,부천시,31050,경기도 부천시 장말로 107,경기도 부천시 상동 394-2,37.49478344,126.7542142,1층 로비,09:00,18:00,00:00,00:00,00:00,00:00,2,Y,Y,부천도시공사 레포츠사업부,032-340-5393,2022-04-01,3860000,경기도 부천시
지체장애인협회 부천지회(시비설치),경기도,부천시,31050,경기도 부천시 부천로136번길 30,경기도 부천시 원미동 87-2,37.49578877,126.7869671,1층 로비,09:00,18:00,00:00,00:00,00:00,00:00,2,Y,Y,지체장애인협회 부천지회,032-663-9886,2022-04-01,3860000,경기도 부천시
신중동종합사회복지관(시비설치),경기도,부천시,31050,경기도 부천시 도약로 146,경기도 부천시 중동 1041,37.5095138,126.7671245,1층 현관문 안 옆,09:00,18:00,00:00,00:00,00:00,00:00,2,Y,Y,덕유종합사회복지관,032-325-2161,2022-04-01,3860000,경기도 부천시
삼정종합사회복지관(시비설치),경기도,부천시,31050,경기도 부천시 삼작로 52,경기도 부천시 삼정동 365-2,37.51975033,126.7664762,1층 현관문 안 옆,09:00,18:00,00:00,00:00,00:00,00:00,2,Y,Y,삼정종합사회복지관,032-323-3162,2022-04-01,3860000,경기도 부천시
까치울역(7호선)(시비설치),경기도,부천시,31050,경기도 부천시 길주로 지하 626,경기도 부천시 춘의동 3-1,37.50619229,126.811386,지하1층 5번 출구쪽,05:40,23:40,05:40,23:40,05:40,23:40,2,Y,Y,인천교통공사,02-6311-9588,2022-04-01,3860000,경기도 부천시
신중동역(7호선),경기도,부천시,31050,경기도 부천시 길주로 지하 314,경기도 부천시 중동 1140-6,37.50297215,126.7764991,지하1층 개찰구 옆,05:40,23:40,05:40,23:40,05:40,23:40,2,Y,Y,인천교통공사,02-6311-9582,2022-04-01,3860000,경기도 부천시
춘의역(7호선),경기도,부천시,31050,경기도 부천시 길주로 지하 406,경기도 부천시 춘의동 145,37.50364409,126.7868664,지하1층 부천시 열린마당 옆,05:40,23:40,05:40,23:40,05:40,23:40,2,Y,Y,인천교통공사,02-6311-9582,2022-04-01,3860000,경기도 부천시
중동역(1호선),경기도,부천시,31050,경기도 부천시 중동로 73,경기도 부천시 송내동 632,37.48664063,126.7643531,2층 1번출구 엘리베이터 출구옆,05:40,23:40,05:40,23:40,05:40,23:40,2,Y,Y,부천부역장 이광일,032-665-7775,2022-04-01,3860000,경기도 부천시
부천역(1호선),경기도,부천시,31050,경기도 부천시 부천로 1,경기도 부천시 심곡본동 316-2,37.48403692,126.7826497,2층 고객센터 옆,05:40,23:40,05:40,23:40,05:40,23:40,2,Y,Y,부천부역장 이광일,032-665-7775,2022-04-01,3860000,경기도 부천시
심곡동행정복지센터,경기도,부천시,31050,경기도 부천시 부흥로424번길 25,경기도 부천시 심곡동 135-3,37.48741197,126.7870848,2층 민원실 옆,09:00,18:00,00:00,00:00,00:00,00:00,2,Y,Y,경기도 부천시청 장애인담당,032-625-5076,2022-04-01,3860000,경기도 부천시
성곡동행정복지센터,경기도,부천시,31050,경기도 부천시 성오로 25,경기도 부천시 여월동 10-36,37.51675354,126.803195,별관 1층 엘리베이터 앞,09:00,18:00,00:00,00:00,00:00,00:00,2,Y,Y,경기도 부천시청 장애인담당,032-625-7078,2022-04-01,3860000,경기도 부천시
상3주민지원센터,경기도,부천시,31050,경기도 부천시 상동로117번길 48,경기도 부천시 상동 528-5,37.50822292,126.7508681,1층 종합민원실 입구,09:00,18:00,00:00,00:00,00:00,00:00,2,Y,Y,경기도 부천시청 장애인담당,032-625-7671,2022-04-01,3860000,경기도 부천시
범안동현장민원실,경기도,부천시,31050,경기도 부천시 범안로129번길 17,경기도 부천시 범박동 155-4,37.47058724,126.809722,1층 민원실 입구 앞,09:00,18:00,00:00,00:00,00:00,00:00,2,Y,Y,경기도 부천시청 장애인담당,032-625-7790,2022-04-01,3860000,경기도 부천시
보훈회관,경기도,부천시,31050,경기도 부천시 부일로431번길 40,경기도 부천시 심곡동 407-7,37.48828138,126.7787173,1층 안보전시실 앞,09:00,18:00,00:00,00:00,00:00,00:00,2,Y,Y,보훈회관,032-661-3003,2022-04-01,3860000,경기도 부천시
상동종합사회복지관(상동어울마당),경기도,부천시,31050,경기도 부천시 석천로16번길 50,경기도 부천시 상동 318-1,37.48887035,126.7627794,1층 로비 입구,09:00,18:00,00:00,00:00,00:00,00:00,2,Y,Y,상동종합사회복지관(상동어울마당),032-252-0631,2022-04-01,3860000,경기도 부천시
고강종합사회복지관,경기도,부천시,31050,경기도 부천시 고리울로 79,경기도 부천시 고강동 324-4,37.52706253,126.8248197,1층 현관 안 옆,09:00,18:00,00:00,00:00,00:00,00:00,2,Y,Y,최상철 실장,032-210-0011,2022-04-01,3860000,경기도 부천시
전동휠체어급속충전기,인천광역시,강화군,35700,인천광역시 강화군 강화읍 강화대로 373,인천광역시 강화군 강화읍 신문리 10-10,37.74410187,126.4886289,강화군장애인회관,00:00,23:59,00:00,23:59,00:00,23:59,1,Y,N,인천광역시 강화군청 복지정책과,032-930-3318,2022-03-29,3570000,인천광역시 강화군
전동휠체어급속충전기,인천광역시,강화군,35700,인천광역시 강화군 강화읍 충렬사로 63,인천광역시 강화군 강화읍 남산리 356,37.73443166,126.4824918,강화군장애인복지관,00:00,23:59,00:00,23:59,00:00,23:59,1,Y,N,인천광역시 강화군청 복지정책과,032-930-3318,2022-03-29,3570000,인천광역시 강화군
전동휠체어급속충전기,인천광역시,강화군,35700,인천광역시 강화군 강화읍 강화대로440번길 10,인천광역시 강화군 강화읍 관청리 551,37.74815636,126.4835215,강화읍사무소,00:00,23:59,00:00,23:59,00:00,23:59,1,Y,N,인천광역시 강화군청 복지정책과,032-930-3318,2022-03-29,3570000,인천광역시 강화군
전동휠체어급속충전기,인천광역시,강화군,35700,인천광역시 강화군 길상면 강화동로 15,인천광역시 강화군 길상면 온수리 502-3,37.64035969,126.4910236,길상면사무소,00:00,23:59,00:00,23:59,00:00,23:59,1,Y,N,인천광역시 강화군청 복지정책과,032-930-3318,2022-03-29,3570000,인천광역시 강화군
상봉동(현장민원실),경상남도,진주시,48170,경상남도 진주시 비봉로 85번길 12,경상남도 진주시 상봉동 858-17,35.19828938,128.078099,1층 민원실 입구,09:00,18:00,00:00,00:00,00:00,00:00,2,Y,N,경상남도 진주시청,055-749-8525,2022-06-15,5310000,경상남도 진주시
신안동행정복지센터,경상남도,진주시,48170,경상남도 진주시 진양호로 360(신안동),경상남도 진주시 신안동 439-1,35.18450386,128.069063,1층 민원실 입구,09:00,18:00,00:00,00:00,00:00,00:00,2,Y,N,경상남도 진주시청,055-749-8525,2022-06-15,5310000,경상남도 진주시
평거동행정복지센터,경상남도,진주시,48170,경상남도 진주시 평거로 40번길 5(평거동),경상남도 진주시 평거동 764,35.173896,128.0653978,1층 민원실 입구,09:00,18:00,00:00,00:00,00:00,00:00,2,Y,N,경상남도 진주시청,055-749-8525,2022-06-15,5310000,경상남도 진주시
중앙동행정복지센터,경상남도,진주시,48170,경상남도 진주시 진주대로 1032번길 14(동성동),경상남도 진주시 동성동 211-4,35.19206978,128.0861851,1층 민원실 입구,09:00,18:00,00:00,00:00,00:00,00:00,2,Y,N,경상남도 진주시청,055-749-8525,2022-06-15,5310000,경상남도 진주시
충무공동행정복지센터,경상남도,진주시,48170,경상남도 진주시 충의로 145(충무공동),경상남도 진주시 충무공동 277-3,35.17483252,128.1503074,1층 민원실 입구,09:00,18:00,00:00,00:00,00:00,00:00,2,Y,N,경상남도 진주시청,055-749-8525,2022-06-15,5310000,경상남도 진주시
진주성(박물관 앞 광장),경상남도,진주시,48170,경상남도 진주시 남강로 626 (본성동),경상남도 진주시 남성동 169-17,35.19043229,128.0802214,박물관 앞 광장,09:00,18:00,09:00,18:00,09:00,18:00,2,Y,N,경상남도 진주시청,055-749-8525,2022-06-15,5310000,경상남도 진주시
정촌면사무소,경상남도,진주시,48170,경상남도 진주시 정촌면 정촌로 57,경상남도 진주시 정촌면 화개리 976,35.13142591,128.1026083,1층 민원실 입구,09:00,18:00,00:00,00:00,00:00,00:00,2,Y,N,경상남도 진주시청,055-749-8525,2022-06-15,5310000,경상남도 진주시
하대동행정복지센터,경상남도,진주시,48170,경상남도 진주시 모덕로 305(하대동),경상남도 진주시 하대동 105-1,35.18934224,128.1273771,1층 민원실 입구,09:00,18:00,00:00,00:00,00:00,00:00,2,Y,N,경상남도 진주시청,055-749-8525,2022-06-15,5310000,경상남도 진주시
이현동행정복지센터,경상남도,진주시,48170,경상남도 진주시 평거로 287(이현동),경상남도 진주시 이현동 11-53,35.19278073,128.061797,1층 민원실 입구,09:00,18:00,00:00,00:00,00:00,00:00,2,Y,N,경상남도 진주시청,055-749-8525,2022-06-15,5310000,경상남도 진주시
초장동행정복지센터,경상남도,진주시,48170,경상남도 진주시 초장로14번길 14(초장동),경상남도 진주시 초전동 1645-8,35.204555,128.1146081,1층 민원실 입구,09:00,18:00,00:00,00:00,00:00,00:00,2,Y,N,경상남도 진주시청,055-749-8525,2022-06-15,5310000,경상남도 진주시
상대동행정복지센터,경상남도,진주시,48170,경상남도 진주시 동진로 189(상대동),경상남도 진주시 상대동 299-3,35.18031386,128.1119362,1층 민원실 입구,09:00,18:00,00:00,00:00,00:00,00:00,2,Y,N,경상남도 진주시청,055-749-8525,2022-06-15,5310000,경상남도 진주시
성북동행정복지센터,경상남도,진주시,48170,경상남도 진주시 진주대로1143번길 3(봉곡동),경상남도 진주시 봉곡동 6-25,35.195711,128.0782493,1층 민원실 입구,09:00,18:00,00:00,00:00,00:00,00:00,2,Y,N,경상남도 진주시청,055-749-8525,2022-06-15,5310000,경상남도 진주시
조천체육관,제주특별자치도,제주시,50110,제주특별자치도 제주시 조천읍 조천18길 11-1,제주특별자치도 제주시 조천읍 조천리 1176-1,33.53953614,126.6437192,정문 현관 로비앞,09:00,18:00,00:00,00:00,00:00,00:00,2,Y,N,제주장애인자립생활센터,064-751-9103,2022-05-09,6500000,제주특별자치도
김만덕 기념관,제주특별자치도,제주시,50110,제주특별자치도 제주시 산지로 7,제주특별자치도 제주시 건입동 1164,33.51587533,126.5303898,후문로비 우측,09:00,18:00,00:00,00:00,00:00,00:00,2,Y,N,제주장애인자립생활센터,064-751-9103,2022-05-09,6500000,제주특별자치도
제주별빛누리공원,제주특별자치도,제주시,50110,제주특별자치도 제주시 선돌목동길 60,제주특별자치도 제주시 오등동 10-34,33.4445748,126.5491863,출입구 우측로비,15:00,23:00,15:00,23:00,15:00,23:00,2,Y,N,제주장애인자립생활센터,064-751-9103,2022-05-09,6500000,제주특별자치도
운중동행정복지센터,경기도,성남시,41135,경기도 성남시 분당구 운중로 138번길 10,경기도 성남시 분당구 운중동 935,37.39058287,127.0778912,운중동행정복지센터,09:00,18:00,00:00,23:59,00:00,23:59,1,Y,Y,운중동행정복지센터,031-729-7970,2022-04-28,3780000,경기도 성남시
위례종합사회복지관,경기도,성남시,41131,경기도 성남시 수정구 위례광장로 311,경기도 성남시 수정구 창곡동 510,37.47122697,127.143736,위례종합사회복지관,09:00,18:00,09:00,18:00,09:00,18:00,1,Y,Y,위례종합사회복지관,031-758-0701,2022-04-28,3780000,경기도 성남시
중앙도서관,경기도,성남시,41135,경기도 성남시 분당구 판교로 542,경기도 성남시 분당구 야탑동 622-1,37.40671897,127.1336235,중앙도서관,09:00,18:00,09:00,18:00,00:00,23:59,1,Y,Y,중앙도서관,031-729-4500,2022-04-28,3780000,경기도 성남시
중앙동행정복지센터,경기도,성남시,41133,경기도 성남시 중원구 광명로264번길 1,경기도 성남시 중원구 중앙동 708,37.44285798,127.1562974,중앙동행정복지센터,09:00,18:00,00:00,23:59,00:00,23:59,1,Y,Y,중앙동행정복지센터,031-729-6630,2022-04-28,3780000,경기도 성남시
중원도서관,경기도,성남시,41133,경기도 성남시 중원구 원터로17번길 46,경기도 성남시 중원구 성남동 3116-1,37.43022796,127.1401641,중원도서관,09:00,18:00,09:00,18:00,00:00,23:59,1,Y,Y,중원도서관,031-752-3913,2022-04-28,3780000,경기도 성남시
중원어린이도서관,경기도,성남시,41133,경기도 성남시 중원구 산성대로 408번길 42,경기도 성남시 중원구 금광동 3487,37.44762767,127.1631694,중원어린이도서관,09:00,18:00,09:00,18:00,00:00,23:59,1,Y,Y,중원어린이도서관,031-729-4350,2022-04-28,3780000,경기도 성남시
차량등록사업소,경기도,성남시,41135,경기도 성남시 분당구 야탑로 327,경기도 성남시 분당구 야탑동 135-5,37.40723853,127.1538966,차량등록사업소,09:00,18:00,00:00,23:59,00:00,23:59,1,Y,Y,차량등록사업소,1577-3100,2022-04-28,3780000,경기도 성남시
태평1동 복지회관,경기도,성남시,41131,경기도 성남시 수정구 성남대로 1314,경기도 성남시 수정구 태평동 5118,37.44722141,127.1271409,태평1동 복지회관,09:00,18:00,09:00,18:00,00:00,23:59,1,Y,Y,태평1동 복지회관,031-755-3677,2022-04-28,3780000,경기도 성남시
범천2동 주민센터,부산광역시,부산진구,26230,부산광역시 부산진구 신암로 48,부산광역시 부산진구 범천동 960-1,35.14651846,129.0562035,민원실,09:00,18:00,00:00,00:00,00:00,00:00,2,N,Y,부산광역시 부산진구청 노인장애인복지과,051-605-4825,2022-05-19,3290000,부산광역시 부산진구
부산진구노인장애인복지관,부산광역시,부산진구,26230,부산광역시 부산진구 전포대로300번길 6,부산광역시 부산진구 전포동 581,35.16404711,129.0658484,1층 정문 앞,09:00,18:00,09:00,18:00,09:00,18:00,2,N,Y,부산광역시 부산진구청 노인장애인복지과,051-605-4825,2022-05-19,3290000,부산광역시 부산진구
부산시민공원,부산광역시,부산진구,26230,부산광역시 부산진구 시민공원로 73,부산광역시 부산진구 범전동 200,35.16545076,129.0558558,다솜관 1층,06:00,23:00,06:00,23:00,06:00,23:00,2,N,Y,부산광역시 부산진구청 노인장애인복지과,051-605-4825,2022-05-19,3290000,부산광역시 부산진구
동해선 부전역,부산광역시,부산진구,26230,부산광역시 부산진구 부전로 181,부산광역시 부산진구 부전동 280-76,35.16404282,129.0605026,대합실 맞이방,06:00,23:00,06:00,23:00,06:00,23:00,2,N,Y,부산광역시 부산진구청 노인장애인복지과,051-605-4825,2022-05-19,3290000,부산광역시 부산진구
지하철 2호선 전포역,부산광역시,부산진구,26230,부산광역시 부산진구 전포대로 지하181,부산광역시 부산진구 전포동 870-1,35.15283807,129.0653617,엘리베이터 1호기 옆,06:00,23:00,06:00,23:00,06:00,23:00,2,N,Y,부산광역시 부산진구청 노인장애인복지과,051-605-4825,2022-05-19,3290000,부산광역시 부산진구
부산어린이대공원,부산광역시,부산진구,26230,부산광역시 부산진구 새싹로 295,부산광역시 부산진구 초읍동 43,35.18250363,129.0466894,전기차충전소 옆,06:00,23:00,06:00,23:00,06:00,23:00,2,N,Y,부산광역시 부산진구청 노인장애인복지과,051-605-4825,2022-05-19,3290000,부산광역시 부산진구
경기도 이천시청,경기도,이천시,41500,경기도 이천시 부악로 40 (중리동),,37.27212255,127.4350368,1층 로비,9:00,18:00,0:00,0:00,0:00,0:00,2,Y,Y,경기도 이천시청 민원봉사과,031-644-2132,2022-05-25,4070000,경기도 이천시
(사)한국지체장애인협회 이천시지회,경기도,이천시,41500,경기도 이천시 경충대로2697번길 306 (관고동),,37.27794091,127.4269307,사무실,9:00,18:00,0:00,0:00,0:00,0:00,2,N,Y,(사)한국지체장애인협회 이천시지회,031-635-1359,2022-05-25,4070000,경기도 이천시
이천시장애인자립생활센터,경기도,이천시,41500,경기도 이천시 증신로 74 (갈산동),,37.28418013,127.4583815,사무실,9:00,18:00,0:00,0:00,0:00,0:00,2,N,Y,이천시장애인자립생활센터,031-631-7874,2022-05-25,4070000,경기도 이천시
이천시장애인복지관,경기도,이천시,41500,경기도 이천시 신둔면 석동로 3,경기도 이천시 신둔면 지석리 138-13,37.31816091,127.423941,1층 현관 입구,9:00,18:00,0:00,0:00,0:00,0:00,2,N,Y,이천시장애인복지관,031-637-6720,2022-05-25,4070000,경기도 이천시
이천시이삭장애인자립생활센터,경기도,이천시,41500,경기도 이천시 서희로39번길 4 (중리동),,37.27927506,127.4421668,사무실,9:00,18:00,0:00,0:00,0:00,0:00,2,Y,Y,이천시이삭장애인자립생활센터,031-694-9050,2022-05-25,4070000,경기도 이천시
중리동행정복지센터,경기도,이천시,41500,경기도 이천시 남천로 31(중리동),,37.27807,127.44178,1층 민원실,8:00,20:00,0:00,0:00,0:00,0:00,2,Y,Y,중리동행정복지센터,031-633-9003,2022-05-25,4070000,경기도 이천시
창전동행정복지센터,경기도,이천시,41500,경기도 이천시 영창로163번길22(창전동),,37.28288,127.44113,1층 민원실,8:00,20:00,0:00,0:00,0:00,0:00,2,N,Y,창전동행정복지센터,031-633-9001,2022-05-25,4070000,경기도 이천시
이천시장애인복지관(남부센터),경기도,이천시,41500,경기도 이천시 장호원읍 장감로 28,,37.11671,127.63127,사무실 앞,9:00,18:00,0:00,0:00,0:00,0:00,2,N,N,이천시장애인복지관,031-637-6720,2022-05-25,4070000,경기도 이천시
설봉공원 안내소,경기도,이천시,41500,경기도 이천시 경충대로2709번길128,,37.27828,127.42827,안내소 안,8:00,20:00,0:00,0:00,0:00,0:00,2,Y,Y,설봉공원 안내소,031-635-3562,2022-05-25,4070000,경기도 이천시
이천역사,경기도,이천시,41500,경기도 이천시 이섭대로 1063(중리동),,37.26473,127.4423,역사 안 (로비),5:00,23:00,0:00,0:00,0:00,0:00,2,N,Y,이천역사,070-7821-5690,2022-05-25,4070000,경기도 이천시
여주시청,경기도,여주시,41670,경기도 여주시 세종로 1,경기도 여주시 홍문동 4,37.29821379,127.6366244,본관 1층 엘리베이터 앞,9:00,18:00,9:00,18:00,9:00,18:00,1,N,N,경기도 여주시청,031-887-2597,2022-05-24,5700000,경기도 여주시
여주시보건소,경기도,여주시,41670,경기도 여주시 여흥로 160번길 14,경기도 여주시 상동 357,37.29460883,127.6403935,1층 로비,9:00,18:00,9:00,18:00,9:00,18:00,1,N,N,경기도 여주시청,031-887-2597,2022-05-24,5700000,경기도 여주시
여주시장애인복지관,경기도,여주시,41670,경기도 여주시 청심로 105,경기도 여주시 하동 199-4,37.29953755,127.6322747,보장구 수리센터 내,9:00,18:00,0:00,0:00,0:00,0:00,1,N,N,경기도 여주시 장애인복지관,031-883-2100,2022-05-24,5700000,경기도 여주시
종합운동장역,서울특별시,송파구,11710,서울특별시 송파구 올림픽로 23,,37.510968,127.073356,9호선 종합운동장역 지하1층 9번 출구 고객안전실 앞,05:00,23:00,05:00,23:00,05:00,23:00,1,N,N,서울특별시 송파구,02-2147-5000,2020-02-18,3230000,서울특별시 송파구
잠실역,서울특별시,송파구,11710,서울특별시 송파구 올림픽로 305,,37.514978,127.104217,8호선 잠실역 고객안내센터 좌측 30M,05:00,23:00,05:00,23:00,05:00,23:00,1,N,N,서울특별시 송파구,02-2147-5000,2020-02-18,3230000,서울특별시 송파구
역삼주간보호센터,서울특별시,강남구,11680,서울특별시 강남구 테헤란로 8길 36,서울특별시 강남구 역삼동 827-61,37.496458,127.032019,2층 입구,09:00,18:00,00:00,23:59,00:00,23:59,2,Y,Y,역삼주간보호센터,02-518-2270,2022-09-27,3220000,서울특별시 강남구
삼성2동주민센터,서울특별시,강남구,11680,서울특별시 강남구 봉은사로 419,서울특별시 강남구 삼성동 38-34,37.51120565,127.0459755,삼성2동 문화센터 1층 엘리베이터 앞,09:00,22:00,06:30,22:00,00:00,23:59,2,Y,Y,서울특별시 강남구 삼성2동주민센터,02-3423-8242,2022-09-27,3220000,서울특별시 강남구
강남구청,서울특별시,강남구,11680,서울특별시 강남구 학동로426,서울특별시 강남구 삼성동 16-1,37.51796636,127.0470611,1층 민원실,09:00,18:00,00:00,23:59,00:00,23:59,2,N,Y,서울특별시 강남구 강남구청,02-3423-5888,2022-09-27,3220000,서울특별시 강남구
압구정동 주민센터,서울특별시,강남구,11680,서울특별시 강남구 압구정로 201,서울특별시 강남구 압구정동 458,37.53153399,127.0292754,1층 민원실,09:00,18:00,00:00,23:59,00:00,23:59,2,Y,Y,서울특별시 강남구 압구정동 주민센터,02-3423-7617,2022-09-27,3220000,서울특별시 강남구
청담동 주민센터,서울특별시,강남구,11680,서울특별시 강남구 압구정로79길 26,서울특별시 강남구 청담동 124-1,37.52509058,127.049244,1층 민원실,09:00,18:00,00:00,23:59,00:00,23:59,2,Y,Y,서울특별시 강남구 청담동 주민센터,02-3423-7705,2022-09-27,3220000,서울특별시 강남구
수서역,서울특별시,강남구,11680,서울특별시 강남구 광평로 지하270,서울특별시 강남구 수서동 728,37.48738773,127.101893,상가(미샤) 공중전화 부근,05:30,00:30,05:30,00:30,05:30,00:30,2,N,Y,수서역,02-6110-3491,2022-09-27,3220000,서울특별시 강남구
선릉역,서울특별시,강남구,11680,서울특별시 강남구 테헤란로 지하340,서울특별시 강남구 삼성동 172-66,37.50450288,127.0489425,게이트 나와 화장실 사이,05:30,00:30,05:30,00:30,05:30,00:30,2,N,Y,선릉역,02-6110-2201,2022-09-27,3220000,서울특별시 강남구
굿잡자립센터,서울특별시,강남구,11680,서울특별시 강남구 테헤란로8길 36,서울특별시 강남구 역삼동 827-61,37.49649864,127.032067,보조공학 서비스센터 안쪽,09:00,18:00,00:00,23:59,00:00,23:59,1,Y,Y,굿잡자립센터,02-518-2209,2022-09-27,3220000,서울특별시 강남구
논현노인 종합복지관,서울특별시,강남구,11680,서울특별시 강남구 강남대로128길 59,서울특별시 강남구 논현동 125-13,37.51206587,127.0260872,1층 주차장 내부,09:00,18:00,00:00,23:59,00:00,23:59,2,N,Y,논현노인종합복지관,02-541-0226,2022-09-27,3220000,서울특별시 강남구
강남노인종합복지관,서울특별시,강남구,11680,서울특별시 강남구 삼성로628,서울특별시 강남구 삼성동 66,37.51590994,127.0521409,1층 카페 통로측,09:00,18:00,00:00,23:59,00:00,23:59,2,N,Y,강남노인종합복지관,070-8031-2387,2022-09-27,3220000,서울특별시 강남구
수서명화종합사회복지관,서울특별시,강남구,11680,서울특별시 강남구 광평로51길 49,서울특별시 강남구 수서동 707,37.49213604,127.0997527,1층 주출입구 좌측 내부,00:00,18:00,00:00,23:59,00:00,23:59,2,N,Y,수서명화종합사회복지관,02-459-2696,2022-09-27,3220000,서울특별시 강남구
강남세움복지관,서울특별시,강남구,11680,서울특별시 강남구 광평로60길 22,서울특별시 강남구 수서동 721,37.48698084,127.106951,1층 외부,09:00,18:00,09:00,18:00,00:00,23:59,1,N,N,강남세움복지관,02-2184-8700,2022-09-27,3220000,서울특별시 강남구
산청군청,경상남도,산청군,48860,경상남도 산청군 산청읍 산엔청로 1,경상남도 산청군 산청읍 옥산리 465-3,35.415136,127.8729916,산청군청 별관 복지지원과 앞,09:00,18:00,00:00,00:00,00:00,00:00,2,N,Y,경상남도 산청군청,055-970-6853,2022-09-27,5450000,경상남도 산청군
산엔청복지관,경상남도,산청군,48860,경상남도 산청군 산청읍 중앙로 67,경상남도 산청군 산청읍 지리 179-7,35.414789,127.881925,산엔청복지관 1층 정문 티켓발매기 옆,09:00,18:00,00:00,00:00,00:00,00:00,2,N,Y,경상남도 산청군청,055-970-6853,2022-09-27,5450000,경상남도 산청군
단성면사무소,경상남도,산청군,48860,경상남도 산청군 단성면 목화로 985,경상남도 산청군 단성면 성내리 187-25,35.298875,127.9576459,단성면사무소 정문,09:00,18:00,00:00,00:00,00:00,00:00,2,N,Y,경상남도 산청군청,055-970-6853,2022-09-27,5450000,경상남도 산청군
생비량면 복지회관,경상남도,산청군,48860,경상남도 산청군 생비량면 비량로 29,경상남도 산청군 생비량면 도리 646-27,35.34542458,128.0442743,생비량면 복지회관 입구,09:00,18:00,00:00,00:00,00:00,00:00,2,N,Y,경상남도 산청군청,055-970-6853,2022-09-27,5450000,경상남도 산청군
오산시립쉼터공원,경기도,오산시,41370,경기도 오산시 가장산업동로 69-21,경기도 오산시 가장동 5-2,37.16525805,127.0423515,휴게실 입구 앞,09:00,18:00,00:00,00:00,00:00,00:00,1,N,N,경기도 오산시청,031-8036-7453,2022-09-16,4000000,경기도 오산시
오산시 보건소,경기도,오산시,41370,경기도 오산시 경기동로 59,경기도 오산시 오산동 25,37.15936876,127.0778335,1층 민원실 내부,09:00,18:00,00:00,00:00,00:00,00:00,1,Y,N,경기도 오산시청,031-8036-7453,2022-09-16,4000000,경기도 오산시
오산시청1,경기도,오산시,41370,경기도 오산시 성호대로 141,경기도 오산시 오산동 915,37.14903553,127.0776653,1층 노인장애인과 앞,09:00,18:00,00:00,00:00,00:00,00:00,1,N,N,경기도 오산시청,031-8036-7453,2022-09-16,4000000,경기도 오산시
세마역,경기도,오산시,41370,경기도 오산시 세마역로 88,경기도 오산시 세교동 244-5,37.1869832,127.0430618,"1,2번 타는 곳 내부 통로",05:00,23:00,05:00,23:00,05:00,23:00,1,N,N,경기도 오산시청,031-8036-7453,2022-09-16,4000000,경기도 오산시
오산세교종합복지관,경기도,오산시,41370,경기도 오산시 수청로 192,경기도 오산시 금암동 512,37.17775298,127.0448358,장애인 전용주차장 쪽 건물 입구 안쪽,09:00,18:00,00:00,00:00,00:00,00:00,1,N,N,경기도 오산시청,031-8036-7453,2022-09-16,4000000,경기도 오산시
오산역,경기도,오산시,41370,경기도 오산시 역광장로 59,경기도 오산시 오산동 603-116,37.14589518,127.0668449,대합실 앞,05:00,23:00,05:00,23:00,05:00,23:00,1,N,N,경기도 오산시청,031-8036-7453,2022-09-16,4000000,경기도 오산시
진서면사무소,전라북도,부안군,47900,전라북도 부안군 진서면 청자로 926,전라북도 부안군 진서면 곰소리 646,35.58753969,126.6057026,정문입구 오른편 상담실,09:00,18:00,00:00,00:00,00:00,00:00,2,Y,Y,전라북도 부안군청,063-580-4420,2022-06-03,4790000,전라북도 부안군
부안장애인종합복지관,전라북도,부안군,47900,전라북도 부안군 부안읍 용암로 134,전라북도 부안군 부안읍 봉덕리 364,35.7166063,126.7462261,복지관 테라스,09:00,18:00,09:00,18:00,09:00,18:00,2,Y,Y,전라북도 부안군청,063-580-4420,2022-06-03,4790000,전라북도 부안군
부안군보건소,전라북도,부안군,47900,전라북도 부안군 부안읍 오리정로 124,전라북도 부안군 부안읍 봉덕리 551-2,35.72282849,126.735576,보건소 정문입구 왼편,09:00,18:00,09:00,18:00,09:00,18:00,2,N,Y,전라북도 부안군보건소,063-580-3184,2022-06-03,4790000,전라북도 부안군
지하철 1호선 범내골역,부산광역시,부산진구,26230,부산광역시 부산진구 중앙대로 612,부산광역시 부산진구 범천동 948-4,35.14726083,129.0600104,2번출구 인근,06:00,23:00,06:00,23:00,06:00,23:00,2,N,Y,부산광역시보조기기센터,051-790-6190,2022-05-19,3290000,부산광역시 부산진구
지하철 1호선 양정역,부산광역시,부산진구,26230,부산광역시 부산진구 중앙대로 930,부산광역시 부산진구 양정동 408,35.17271218,129.0714826,화장실 맞은편,06:00,23:00,06:00,23:00,06:00,23:00,2,N,Y,부산광역시보조기기센터,051-790-6190,2022-05-19,3290000,부산광역시 부산진구
지하철 1호선 서면역,부산광역시,부산진구,26230,부산광역시 부산진구 중앙대로 지하730,부산광역시 부산진구 부전동 573-1,35.15776331,129.0590375,15번 출구 인근,06:00,23:00,06:00,23:00,06:00,23:00,2,N,Y,부산광역시보조기기센터,051-790-6190,2022-05-19,3290000,부산광역시 부산진구
지하철 2호선 가야역,부산광역시,부산진구,26230,부산광역시 부산진구 가야대로 지하650,부산광역시 부산진구 가야동 15-13,35.15587381,129.0428246,매점 옆,06:00,23:00,06:00,23:00,06:00,23:00,2,N,Y,부산광역시보조기기센터,051-790-6190,2022-05-19,3290000,부산광역시 부산진구
지게골역,부산광역시,남구,33101,부산광역시 남구 수영로 지하 70,,35.13562414,129.0742336,만남의 장소 인근,6:00,23:59,6:00,23:59,6:00,23:59,2,N,Y,부산광역시 남구청,051-607-4331,2022-06-08,3310000,부산광역시 남구
지하철 2호선 개금역,부산광역시,부산진구,26230,부산광역시 부산진구 가야대로 지하442,부산광역시 부산진구 개금동 487-2,35.15319492,129.0203739,2번출구 인근,06:00,23:00,06:00,23:00,06:00,23:00,2,N,Y,부산광역시보조기기센터,051-790-6190,2022-05-19,3290000,부산광역시 부산진구
부산진구청,부산광역시,부산진구,26230,부산광역시 부산진구 시민공원로 30,부산광역시 부산진구 부암동 666-16,35.16283294,129.0531876,구청 후문,09:00,18:00,00:00,00:00,00:00,00:00,2,N,Y,부산광역시 부산진구청 노인장애인복지과,051-605-4825,2022-05-19,3290000,부산광역시 부산진구
지하철역사 (노은역),대전광역시,유성구,30200,대전광역시 유성구 노은로 지하 161 (지족동),대전광역시 유성구 지족동 962,36.37413745,127.3178924,지하철역사 (노은역),05:00,00:00,05:00,00:00,05:00,00:00,2,N,Y,지하철역사 (노은역),042-826-3120,2021-10-27,6300000,대전광역시
의정부시장애인종합복지관,경기도,의정부시,41150,경기도 의정부시 용민로 160,경기도 의정부시 민락동 735-17,37.74379671,127.0923067,의정부시장애인복지관 별관 좌측 옆 전용공간,09:00,18:00,00:00,00:00,00:00,00:00,4,Y,Y,의정부시장애인종합복지관,031-850-5321,2022-09-28,3820000,경기도 의정부시
송산3동행정복지센터,경기도,의정부시,41150,경기도 의정부시 용민로 391,경기도 의정부시 낙양동 737,37.75545325,127.1118598,송산3동행정복지센터 외부(건물 앞),00:00,23:59,00:00,23:59,00:00,23:59,2,Y,Y,경기도 의정부시 송산3동행정복지센터,031-870-7655,2022-09-28,3820000,경기도 의정부시
가능동주민센터,경기도,의정부시,41150,경기도 의정부시 신촌로 35,경기도 의정부시 가능동 617-8,37.75059758,127.0386121,가능동주민센터 외부(건물 앞),00:00,23:59,00:00,23:59,00:00,23:59,2,Y,Y,경기도 의정부시 가능동주민센터,031-870-7054,2022-09-28,3820000,경기도 의정부시
의정부역,경기도,의정부시,41150,경기도 의정부시 평화로 525,경기도 의정부시 의정부동 168-54,37.73799015,127.0458795,역사 내 3층 동부화장실 옆,05:00,23:59,05:00,23:59,05:00,23:59,2,Y,Y,의정부역,031-872-7788,2022-09-28,3820000,경기도 의정부시
회룡역,경기도,의정부시,41150,경기도 의정부시 평화로 363,경기도 의정부시 호원동 50-5,37.72442191,127.0472186,역사 내 3층,05:00,23:59,05:00,23:59,05:00,23:59,1,Y,Y,회룡역,031-872-7744,2022-09-28,3820000,경기도 의정부시
장암종합사회복지관,경기도,의정부시,41150,경기도 의정부시 회룡로192번길 11,경기도 의정부시 장암동 5,37.72582358,127.0558026,장암종합사회복지관 1층 계단 옆,09:00,18:00,09:00,13:00,00:00,00:00,2,Y,Y,장암종합사회복지관,031-874-8081,2022-09-28,3820000,경기도 의정부시
의정부경전철 경기도청북부청사역,경기도,의정부시,41150,경기도 의정부시 장곡로 615,경기도 의정부시 신곡동 815-2,37.75070715,127.0715514,의정부경전철 경기도청북부청사역 2층,05:00,23:59,05:00,23:59,05:00,23:59,2,Y,Y,경기도 의정부시,031-828-4206,2022-09-28,3820000,경기도 의정부시
녹양종합사회복지관,경기도,의정부시,41150,경기도 의정부시 체육로 254,경기도 의정부시 녹양동 407-4,37.760859,127.035591,녹양종합사회복지관 1층 엘리베이터 앞,09:00,18:00,00:00,00:00,00:00,00:00,2,Y,N,녹양종합사회복지관,031-826-7400,2022-09-28,3820000,경기도 의정부시
중앙체육공원,전라북도,익산시,45140,전라북도 익산시 하나로 322,전라북도 익산시 어양동 52,35.94972951,126.9861274,관리사무실 옆,06:00,23:00,06:00,23:00,06:00,23:00,1,Y,Y,전라북도 익산시청,063-1577-0072,2022-09-13,4680000,전라북도 익산시
영등시민공원,전라북도,익산시,45140,전라북도 익산시 궁동로 57,전라북도 익산시 영등동 814,35.96291519,126.9777442,영등도서관 좌측공간,06:00,23:00,06:00,23:00,06:00,23:00,1,Y,Y,전라북도 익산시청,063-1577-0072,2022-09-13,4680000,전라북도 익산시
팔봉공설운동장,전라북도,익산시,45140,전라북도 익산시 무왕로 1397,전라북도 익산시 부송동 180,35.9679854,127.0090426,실내체육관입구,06:00,23:00,06:00,23:00,06:00,23:00,1,Y,Y,전라북도 익산시청,063-1577-0072,2022-09-13,4680000,전라북도 익산시
배산체육공원,전라북도,익산시,45140,전라북도 익산시 동서로 21,전라북도 익산시 현영동 169,35.9598887,126.9403698,배산체육공원 매점 옆,06:00,23:00,06:00,23:00,06:00,23:00,1,Y,Y,전라북도 익산시청,063-1577-0072,2022-09-13,4680000,전라북도 익산시
익산시청,전라북도,익산시,45140,전라북도 익산시 인북로32길 1,전라북도 익산시 남중동 60,35.94758877,126.9578601,익산시청 내,06:00,23:00,06:00,23:00,06:00,23:00,1,Y,Y,전라북도 익산시청,063-1577-0072,2022-09-13,4680000,전라북도 익산시
익산시지체장애인협회,전라북도,익산시,45140,전라북도 익산시 익산대로30길 11-1,전라북도 익산시 남중동 206-23,35.94749618,126.9513386,지체장애인협회,06:00,23:00,06:00,23:00,06:00,23:00,1,Y,Y,전라북도 익산시청,063-1577-0072,2022-09-13,4680000,전라북도 익산시
성주군종합사회복지관,경상북도,성주군,47840,경상북도 성주군 성주읍 성주순환로 271-9,경상북도 성주군 성주읍 성산리 65-7,35.919621,128.2933892,성주군종합사회복지관 현관 입구,09:00,18:00,09:00,18:00,00:00,00:00,1,Y,N,가족지원과(장애인청소년담당부서),054-930-6972,2020-07-01,5210000,경상북도 성주군
성주군노인회관,경상북도,성주군,47840,경상북도 성주군 성주읍 성주읍3길 49,경상북도 성주군 성주읍 예산리 334-21,35.9222348590,128.2891631420,성주군노인회관 입구,09:00,18:00,09:00,18:00,00:00,00:00,1,Y,Y,가족지원과(장애인청소년담당부서),054-930-6972,2020-07-01,5210000,경상북도 성주군
칠곡군장애인종합복지관,경상북도,칠곡군,47850,경상북도 칠곡군 왜관읍 관문로1길 24-5,경상북도 칠곡군 왜관읍 매원리 692-10,35.99099339,128.4191718,1층 여자화장실 맞은편,09:00,18:00,00:00,00:00,00:00,00:00,4,Y,N,칠곡군청,054-979-6593,2020-07-01,5220000,경상북도 칠곡군
어울림센터,경상북도,칠곡군,47850,경상북도 칠곡군 왜관읍 석전로7길 58-1,경상북도 칠곡군 왜관읍 석전리 473,36.00724838,128.4086163,지체장애인협회 사무실 옆,09:00,18:00,00:00,00:00,00:00,00:00,2,Y,N,칠곡군청,054-979-6593,2020-07-01,5220000,경상북도 칠곡군
칠곡보사업소,경상북도,칠곡군,47850,경상북도 칠곡군 석적읍 강변대로1555,경상북도 칠곡군 석적읍 중지리 559,36.01561765,128.4009741,정문 입구 왼쪽,09:00,18:00,09:00,18:00,09:00,18:00,2,Y,N,칠곡군청,054-979-6593,2020-07-01,5220000,경상북도 칠곡군
왜관읍사무소,경상북도,칠곡군,47850,경상북도 칠곡군 왜관읍 2번도로길 16,경상북도 칠곡군 왜관읍 왜관리 281-9,35.98896344,128.3977305,입구 들어와서 왼쪽 끝,09:00,18:00,09:00,18:00,09:00,18:00,2,Y,N,칠곡군청,054-979-6593,2020-07-01,5220000,경상북도 칠곡군
북삼읍사무소,경상북도,칠곡군,47850,경상북도 칠곡군 북삼읍 인평1길 6,경상북도 칠곡군 북삼읍 인평리 365-1,36.06292124,128.3429711,왼쪽 출입문 우측편,09:00,18:00,09:00,18:00,09:00,18:00,2,Y,N,칠곡군청,054-979-6593,2020-07-01,5220000,경상북도 칠곡군
석적읍사무소,경상북도,칠곡군,47850,경상북도 칠곡군 석적읍 남율로7길 7,경상북도 칠곡군 석적읍 남율리 895,36.0667918,128.4009754,민원봉사실 입구 앞,09:00,18:00,09:00,18:00,09:00,18:00,2,Y,N,칠곡군청,054-979-6593,2020-07-01,5220000,경상북도 칠곡군
지천면사무소,경상북도,칠곡군,47850,경상북도 칠곡군 지천면 신동로 173,경상북도 칠곡군 지천면 신리 362-1,35.95613792,128.4915983,회의실,09:00,18:00,09:00,18:00,09:00,18:00,2,Y,N,칠곡군청,054-979-6593,2020-07-01,5220000,경상북도 칠곡군
동명면사무소,경상북도,칠곡군,47850,경상북도 칠곡군 동명면 금암중앙길 56,경상북도 칠곡군 동명면 금암리 231-6,35.98384054,128.5539477,정문 입구 오른쪽,09:00,18:00,09:00,18:00,09:00,18:00,2,Y,N,칠곡군청,054-979-6593,2020-07-01,5220000,경상북도 칠곡군
가산면사무소,경상북도,칠곡군,47850,경상북도 칠곡군 가산면 경북대로 1570,경상북도 칠곡군 가산면 천평리 139-2,36.08598165,128.5388414,정문 입구 왼쪽,09:00,18:00,09:00,18:00,09:00,18:00,2,Y,N,칠곡군청,054-979-6593,2020-07-01,5220000,경상북도 칠곡군
약목면사무소,경상북도,칠곡군,47850,경상북도 칠곡군 약목면 복성1길 15,경상북도 칠곡군 약목면 복성리 1002,36.03276094,128.3637826,정문 입구 왼쪽,09:00,18:00,09:00,18:00,09:00,18:00,2,Y,N,칠곡군청,054-979-6593,2020-07-01,5220000,경상북도 칠곡군
기산면사무소,경상북도,칠곡군,47850,경상북도 칠곡군 기산면 주산로 1213,경상북도 칠곡군 기산면 죽전리 294-13,35.98662402,128.3821793,정문 입구 왼쪽,09:00,18:00,09:00,18:00,09:00,18:00,2,Y,N,칠곡군청,054-979-6593,2020-07-01,5220000,경상북도 칠곡군
칠곡종합운동장,경상북도,칠곡군,47850,경상북도 칠곡군 왜관읍 호국로 203,경상북도 칠곡군 왜관읍 아곡리 670-5,35.99960951,128.423638,정문 입구 왼쪽,09:00,18:00,09:00,18:00,09:00,18:00,2,Y,N,칠곡군청,054-979-6593,2020-07-01,5220000,경상북도 칠곡군
칠곡국민체육센터,경상북도,칠곡군,47850,경상북도 칠곡군 왜관읍 석전로7길 58,경상북도 칠곡군 왜관읍 석전리 473,36.00666888,128.4082377,정문 입구 왼쪽 계단옆,09:00,18:00,09:00,18:00,00:00,00:00,2,Y,N,칠곡군청,054-979-6593,2020-07-01,5220000,경상북도 칠곡군
칠곡군립도서관,경상북도,칠곡군,47850,경상북도 칠곡군 왜관읍 달오1길 6-7,경상북도 칠곡군 왜관읍 왜관리 1543,35.97529557,128.3995161,정문 입구 왼쪽 사무실 앞,09:00,18:00,09:00,18:00,09:00,18:00,2,Y,N,칠곡군청,054-979-6593,2020-07-01,5220000,경상북도 칠곡군
어르신의 전당,경상북도,칠곡군,47850,경상북도 칠곡군 왜관읍 2번도로길 23,경상북도 칠곡군 왜관읍 왜관리 273-1,35.98981598,128.3972621,정문 입구 왼쪽,09:00,18:00,09:00,18:00,00:00,00:00,2,Y,N,칠곡군청,054-979-6593,2020-07-01,5220000,경상북도 칠곡군
교육문화회관,경상북도,칠곡군,47850,경상북도 칠곡군 왜관읍 관문로1길 32,경상북도 칠곡군 왜관읍 석전리 254,35.99199957,128.4173003,사회교육관 입구 왼쪽,09:00,18:00,09:00,18:00,09:00,18:00,2,Y,N,칠곡군청,054-979-6593,2020-07-01,5220000,경상북도 칠곡군
칠곡군청,경상북도,칠곡군,47850,경상북도 칠곡군 왜관읍 군청1길 80,경상북도 칠곡군 왜관읍 왜관리 177-1,35.99549259,128.4016427,정문 입구 오른쪽,09:00,18:00,09:00,18:00,09:00,18:00,2,Y,N,칠곡군청,054-979-6593,2020-07-01,5220000,경상북도 칠곡군
목포시노인복지관,전라남도,목포시,46110,전라남도 목포시 호남로67번길 5,전라남도 목포시 호남동 9-3,34.79481867,126.3859917,건물 내,09:00,18:00,00:00,00:00,00:00,00:00,2,Y,N,전라남도 목포시청,061-278-8516,2022-08-17,4800000,전라남도 목포시
목포시청 노인장애인과옆,전라남도,목포시,46110,전라남도 목포시 양을로 203,,34.81153485,126.3912825,건물내,09:00,18:00,00:00,00:00,00:00,00:00,2,Y,N,전라남도 목포시청,061-270-8815,2022-08-17,4800000,전라남도 목포시
동명동행정복지센터,전라남도,목포시,46110,전라남도 목포시 자유로 20번길 27,,34.79090088,126.3920128,건물내,09:00,18:00,00:00,00:00,00:00,00:00,2,Y,N,전라남도 목포시청,061-270-4673,2022-08-17,4800000,전라남도 목포시
목포이랜드노인복지관,전라남도,목포시,46110,전라남도 목포시 용당로 161번길 14,,34.8018289,126.3992096,건물내,09:00,18:00,00:00,00:00,00:00,00:00,2,Y,N,전라남도 목포시청,061-278-0200,2022-08-17,4800000,전라남도 목포시
죽교동행정복지센터,전라남도,목포시,46110,전라남도 목포시 북항로 81번길 6,,34.79982373,126.3750947,건물내,09:00,18:00,00:00,00:00,00:00,00:00,2,Y,N,전라남도 목포시청,061-270-4743,2022-08-17,4800000,전라남도 목포시
북항동행정복지센터,전라남도,목포시,46110,전라남도 목포시 고하대로 655,,34.80701849,126.3694884,건물내,09:00,18:00,00:00,00:00,00:00,00:00,2,Y,N,전라남도 목포시청,061-270-4767,2022-08-17,4800000,전라남도 목포시
삼학도 무장애길 입구,전라남도,목포시,46110,전라남도 목포시 산정동 1480-3,,34.7836452,126.3920519,실외,00:00,23:59,00:00,23:59,00:00,23:59,2,Y,N,전라남도 목포시청,061-270-3514,2022-08-17,4800000,전라남도 목포시
갓바위 해상교(달맞이 공원 인근),전라남도,목포시,46110,전라남도 목포시 남농로 166-1,,34.79343754,126.4250206,실외,00:00,23:59,00:00,23:59,00:00,23:59,2,Y,N,전라남도 목포시청,061-270-8815,2022-08-17,4800000,전라남도 목포시
전동휠체어급속충전기,전라남도,장성군,46880,전라남도 장성군 황룡면 신월산2길 20,전라남도 장성군 황룡면 월평리 93-3,35.28890355,126.7730191,황룡면사무소,09:00,18:00,00:00,00:00,00:00,00:00,1,N,Y,전라남도 장성군 황룡면사무소,061-390-6995,2022-06-28,4980000,전라남도 장성군
장애인 전동보장구 충전기(대강면사무소),충청북도,단양군,44800,충청북도 단양군 대강면 대강로 74,충청북도 단양군 대강면 장림리 149-1,36.9224764,128.3523436,대강면사무소,09:00,18:00,09:00,18:00,09:00,18:00,2,Y,Y,충청북도 단양군청,043-420-2105,2022-04-09,4480000,충청북도 단양군
장애인 전동보장구 충전기(가곡면사무소),충청북도,단양군,44800,충청북도 단양군 가곡면 남한강로 550,충청북도 단양군 가곡면 사평리 426,37.02861184,128.3855092,가곡면사무소,09:00,18:00,09:00,18:00,09:00,18:00,2,Y,Y,충청북도 단양군청,043-420-2105,2022-04-09,4480000,충청북도 단양군
장애인 전동보장구 충전기(어상천면사무소),충청북도,단양군,44800,충청북도 단양군 어상천면 어상천로 928,충청북도 단양군 어상천면 임현리 446,37.10229117,128.3588005,어상천면사무소,09:00,18:00,09:00,18:00,09:00,18:00,2,Y,Y,충청북도 단양군청,043-420-2105,2022-04-09,4480000,충청북도 단양군
장애인 전동보장구 충전기(영춘면별방민원센터),충청북도,단양군,44800,충청북도 단양군 영춘면 별방만종로 605,충청북도 단양군 영춘면 장발리 220-1,37.0943828,128.417049,영춘면별방민원센터,09:00,18:00,09:00,18:00,09:00,18:00,2,Y,Y,충청북도 단양군청,043-420-2105,2022-04-09,4480000,충청북도 단양군
장애인 전동보장구 충전기(온달문화복지센터),충청북도,단양군,44800,충청북도 단양군 영춘면 온달평강로 63,충청북도 단양군 영춘면 상리 643-1,37.07897537,128.4828547,온달문화복지센터,09:00,18:00,09:00,18:00,09:00,18:00,2,Y,Y,충청북도 단양군청,043-420-2105,2022-04-09,4480000,충청북도 단양군
장애인 전동보장구 충전기(적성문화복지회관),충청북도,단양군,44800,충청북도 단양군 적성면 금수산로 952,충청북도 단양군 적성면 하리 350-5,36.95969257,128.2931575,적성문화복지회관,09:00,18:00,09:00,18:00,09:00,18:00,2,Y,Y,충청북도 단양군청,043-420-2105,2022-04-09,4480000,충청북도 단양군
양산시청,경상남도,양산시,48330,경상남도 양산시 중앙로 39,경상남도 양산시 남부동 505,35.33515653,129.0381165,시청 민원실 내,09:00,18:00,00:00,00:00,00:00,00:00,2,N,N,경상남도 양산시청 민원지적과,055-392-2392,2022-04-05,5380000,경상남도 양산시
양산시장애인복지관,경상남도,양산시,48330,경상남도 양산시 북안남5길 15,경상남도 양산시 북부동 331-2,35.3458265,129.0403165,정문입구 왼편 경사로,00:00,23:59,00:00,23:59,00:00,23:59,2,Y,Y,양산시장애인복지관(2층사무실),055-367-9655,2022-04-05,5380000,경상남도 양산시
종합운동장,경상남도,양산시,48330,경상남도 양산시 양산대로 849,경상남도 양산시 북부동 533,35.34855992,129.0354984,주경기장 로비,05:00,22:00,05:00,22:00,05:00,22:00,2,N,Y,양산시시설관리공단 종합운동장팀,055-379-8533,2022-04-05,5380000,경상남도 양산시
충청북도장애인종합복지관,충청북도,충주시,43130,충청북도 충주시 도장관주로 34-17,충청북도 충주시 호암동 751-7,36.94980125,127.9210067,1층 로비,09:00,18:00,00:00,00:00,00:00,00:00,2,N,N,충청북도 충주시청,043-850-6821,2022-03-31,4390000,충청북도 충주시
휴천3동행정복지센터,경상북도,영주시,47210,경상북도 영주시 구성로273번길 30,경상북도 영주시 휴천동 667-2,36.81778548,128.6258492,들어가는 정문 좌측 쉼터 입구,00:00,23:59,00:00,23:59,00:00,23:59,2,N,N,경북지체장애인협회영주시지회 영주시장애인종합복지관,054-633-6415,2022-06-14,5090000,경상북도 영주시
가흥1동행정복지센터,경상북도,영주시,47210,경상북도 영주시 대동로13번길 9,경상북도 영주시 가흥동 1622,36.8159305,128.6034571,들어가는 정문 우측 장애인주차장 옆,00:00,23:59,00:00,23:59,00:00,23:59,2,N,N,경북지체장애인협회영주시지회 영주시장애인종합복지관,054-633-6415,2022-06-14,5090000,경상북도 영주시
가흥2동행정복지센터,경상북도,영주시,47210,경상북도 영주시 가흥로 357,경상북도 영주시 가흥동 479-7,36.82941386,128.6117049,주민센터 전면 우측,00:00,23:59,00:00,23:59,00:00,23:59,2,N,N,경북지체장애인협회영주시지회 영주시장애인종합복지관,054-633-6415,2022-06-14,5090000,경상북도 영주시
남구청,부산광역시,남구,33101,부산광역시 남구 못골로 19,,35.13650057,129.0844346,1층 부산은행 맞은편,0:00,23:59,0:00,23:59,0:00,23:59,2,N,Y,부산광역시 남구청,051-607-4331,2022-06-08,3310000,부산광역시 남구
영주시종합사회복지관,경상북도,영주시,47210,경상북도 영주시 대학로 130-1,경상북도 영주시 가흥동 1385,36.8090284,128.6109751,들어가는 정문 우측 놀이터 입구,00:00,23:59,00:00,23:59,00:00,23:59,2,N,N,경북지체장애인협회영주시지회 영주시장애인종합복지관,054-633-6415,2022-06-14,5090000,경상북도 영주시
영주시장애인종합복지관,경상북도,영주시,47210,경상북도 영주시 원당로52번길 25,경상북도 영주시 휴천동 42-1,36.8189605,128.6231862,들어가는 정문 좌측,00:00,23:59,00:00,23:59,00:00,23:59,2,N,N,경북지체장애인협회영주시지회 영주시장애인종합복지관,054-633-6415,2022-06-14,5090000,경상북도 영주시
구로구청,서울특별시,구로구,11530,서울특별시 구로구 가마산로 245,서울특별시 구로구 구로동 435,37.49551123,126.8882891,구로구청 본관 1층,09:00,18:00,09:00,18:00,09:00,18:00,2,N,Y,서울특별시 구로구청,02-860-2374,2022-06-29,3160000,서울특별시 구로구
구로구민체육센터,서울특별시,구로구,11530,서울특별시 구로구 고척로45길 39,서울특별시 구로구 고척동 산9-14,37.50658242,126.8532783,구로구민체육센터 1층,06:00,22:00,06:00,19:00,00:00,00:00,2,Y,N,서울특별시 구로구청,02-860-2374,2022-06-29,3160000,서울특별시 구로구
구로구시설관리공단,서울특별시,구로구,11530,서울특별시 구로구 구로동로26길 54,서울특별시 구로구 구로동 741-27,37.48987838,126.8865593,구로구시설관리공단 1층,06:00,23:00,06:00,23:00,06:00,23:00,2,Y,N,서울특별시 구로구청,02-860-2374,2022-06-29,3160000,서울특별시 구로구
구로구민회관,서울특별시,구로구,11530,서울특별시 구로구 가마산로25길 21,서울특별시 구로구 구로동 102,37.49710368,126.8895474,구로구민회관 1층,09:00,18:00,09:00,18:00,00:00,00:00,2,Y,N,서울특별시 구로구청,02-860-2374,2022-06-29,3160000,서울특별시 구로구
성프란치스꼬장애인종합복지관,서울특별시,구로구,11530,서울특별시 구로구 남부순환로105라길 25-10,서울특별시 구로구 가리봉동 131-1,37.48180209,126.8905627,성프란치스꼬장애인종합복지관 1층,09:00,18:00,00:00,00:00,00:00,00:00,2,N,Y,서울특별시 구로구청,02-860-2374,2022-06-29,3160000,서울특별시 구로구
구로구보건소,서울특별시,구로구,11530,서울특별시 구로구 구로중앙로28길 66,서울특별시 구로구 구로동 109-4,37.50010203,126.8893394,보건소 2층,09:00,18:00,00:00,00:00,00:00,00:00,2,Y,N,서울특별시 구로구청,02-860-2374,2022-06-29,3160000,서울특별시 구로구
신도림역,서울특별시,구로구,11530,서울특별시 구로구 새말로 지하 117-21,서울특별시 구로구 신도림동 460-26,37.50877132,126.891082,신도림역 2호선,06:00,23:00,06:00,23:00,06:00,23:00,2,N,N,서울특별시 구로구청,02-860-2374,2022-06-29,3160000,서울특별시 구로구
천왕역,서울특별시,구로구,11530,서울특별시 구로구 오리로 지하 1154,서울특별시 구로구 천왕동 14-43,37.48682059,126.8387128,천왕역 7호선,06:00,23:00,06:00,23:00,06:00,23:00,2,Y,N,서울특별시 구로구청,02-860-2374,2022-06-29,3160000,서울특별시 구로구
온수역,서울특별시,구로구,11530,서울특별시 구로구 경인로3길 지하 64,서울특별시 구로구 온수동 53-16,37.49215065,126.8233816,온수역 7호선,06:00,23:00,06:00,23:00,06:00,23:00,2,Y,N,서울특별시 구로구청,02-860-2374,2022-06-29,3160000,서울특별시 구로구
구일역,서울특별시,구로구,11530,서울특별시 구로구 구일로 133,서울특별시 구로구 구로동 636-46,37.49639172,126.8699216,구일역 1호선,06:00,23:00,06:00,23:00,06:00,23:00,2,Y,N,서울특별시 구로구청,02-860-2374,2022-06-29,3160000,서울특별시 구로구
대림역,서울특별시,구로구,11530,서울특별시 구로구 도림천로 351,서울특별시 구로구 구로동 1204,37.49330996,126.8949446,대림역 2호선,06:00,23:00,06:00,23:00,06:00,23:00,2,Y,N,서울특별시 구로구청,02-860-2374,2022-06-29,3160000,서울특별시 구로구
구로조은장애인자립생활센터,서울특별시,구로구,11530,서울특별시 구로구 디지털로31길 38-21,서울특별시 구로구 구로동 197-33,37.48652247,126.8937149,2층,09:00,18:00,00:00,00:00,00:00,00:00,2,N,Y,서울특별시 구로구청,02-860-2381,2022-06-29,3160000,서울특별시 구로구
구로장애인자립생활센터,서울특별시,구로구,11530,서울특별시 구로구 가마산로27길 14,서울특별시 구로구 구로동 106-8,37.49772931,126.8918534,8층,09:30,18:30,00:00,00:00,00:00,00:00,2,N,Y,서울특별시 구로구청,02-860-2382,2022-06-29,3160000,서울특별시 구로구
구로3동주민센터,서울특별시,구로구,11530,서울특별시 구로구 디지털로 31길 109,서울특별시 구로구 구로동 777-22,37.4873470419,126.8903299561,1층 복도,09:00,18:00,00:00,00:00,00:00,00:00,2,N,N,서울특별시 구로구청,02-860-2374,2022-06-29,3160000,서울특별시 구로구
오류1동주민센터,서울특별시,구로구,11530,서울특별시 구로구 경인로27길 7,서울특별시 구로구 오류동 359,37.497288,126.844942,지하1층 엘리베이터 옆,09:00,18:00,00:00,00:00,00:00,00:00,2,N,N,서울특별시 구로구청,02-860-2374,2022-06-29,3160000,서울특별시 구로구
전동휠체어급속충전기,전라남도,장성군,46880,전라남도 장성군 남면 못재로 85,전라남도 장성군 남면 분향리 334,35.24426766,126.8121344,남면사무소,09:00,18:00,00:00,00:00,00:00,00:00,1,N,Y,전라남도 장성군 남면사무소,061-390-6879,2022-06-28,4980000,전라남도 장성군
전동휠체어급속충전기,전라남도,장성군,46880,전라남도 장성군 삼계면 영장로 1585,전라남도 장성군 삼계면 사창리 427-7,35.25770793,126.6618721,삼계면사무소,09:00,18:00,00:00,00:00,00:00,00:00,1,N,Y,전라남도 장성군 삼계면사무소,061-390-6973,2022-06-28,4980000,전라남도 장성군
하망동행정복지센터,경상북도,영주시,47210,경상북도 영주시 영주로280번길 21,경상북도 영주시 하망동 299-8,36.8238587,128.630301,전기차충전소 우측,00:00,23:59,00:00,23:59,00:00,23:59,2,N,N,경북지체장애인협회영주시지회 영주시장애인종합복지관,054-633-6415,2022-06-14,5090000,경상북도 영주시
영주1동행정복지센터,경상북도,영주시,47210,경상북도 영주시 광복로 47,경상북도 영주시 영주동 27-2,36.8282527,128.6237042,들어가는 정문 좌측,00:00,23:59,00:00,23:59,00:00,23:59,2,N,N,경북지체장애인협회영주시지회 영주시장애인종합복지관,054-633-6415,2022-06-14,5090000,경상북도 영주시
영주2동행정복지센터,경상북도,영주시,47210,경상북도 영주시 선비로181번길 10,경상북도 영주시 가흥동 3-19,36.8207377,128.6187268,주민센터 우측건물 벽면,00:00,23:59,00:00,23:59,00:00,23:59,2,N,N,경북지체장애인협회영주시지회 영주시장애인종합복지관,054-633-6415,2022-06-14,5090000,경상북도 영주시
휴천1동행정복지센터,경상북도,영주시,47210,경상북도 영주시 남간로 18,경상북도 영주시 휴천동 703,36.81851164,128.6299139,들어가는 정문 우측,00:00,23:59,00:00,23:59,00:00,23:59,2,N,N,경북지체장애인협회영주시지회 영주시장애인종합복지관,054-633-6415,2022-06-14,5090000,경상북도 영주시
휴천2동행정복지센터,경상북도,영주시,47210,경상북도 영주시 대학로 22,경상북도 영주시 휴천동 318-4,36.8100999,128.6217682,들어가는 정문 좌측,00:00,23:59,00:00,23:59,00:00,23:59,2,N,N,경북지체장애인협회영주시지회 영주시장애인종합복지관,054-633-6415,2022-06-14,5090000,경상북도 영주시
대구시 지체장애인협회 북구지회,대구광역시,북구,27230,"대구광역시 북구 고성로 191, 스쿼시장 3층",대구광역시 북구 고성동3가 2,35.88301935,128.5861543,시민운동장 내 스쿼시장 3층 계단 쪽,09:00,18:00,00:00,00:00,00:00,00:00,2,N,N,대구광역시 지체장애인협회 북구지회,053-953-1694,2022-04-27,3450000,대구광역시 북구
경북대학교 장애학생지원센터,대구광역시,북구,27230,"대구광역시 북구 대학로80, 복현회관(205) 102호",대구광역시 북구 산격동 1370-1,35.88909749,128.6143223,경북대학교 장애학생지원센터 입구,09:00,18:00,00:00,00:00,00:00,00:00,2,N,Y,경북대학교 장애학생지원센터,053-950-7697,2022-04-27,3450000,대구광역시 북구
영진전문대학교,대구광역시,북구,27230,대구광역시 북구 복현로 35,대구광역시 북구 복현동 218,35.8956532,128.6206213,영진전문대학교 청문관 1층 로비,09:00,18:00,00:00,00:00,00:00,00:00,2,N,Y,영진전문대학교,053-940-5699,2022-04-27,3450000,대구광역시 북구
대구성보학교,대구광역시,북구,27230,대구광역시 북구 동북로71길 9-29,대구광역시 북구 복현동 310,35.89337678,128.6300858,대구성보학교 1층 서편 현관,09:00,18:00,00:00,00:00,00:00,00:00,2,N,Y,대구성보학교,053-231-3168,2022-04-27,3450000,대구광역시 북구
못골역,부산광역시,남구,33101,부산광역시 남구 수영로 지하 170,,35.13471824,129.0848432,4번 출구,6:00,23:59,6:00,23:59,6:00,23:59,2,N,Y,부산광역시 보조기기센터,051-790-6190,2022-06-08,3310000,부산광역시 남구
대구안식원,대구광역시,북구,27230,대구광역시 북구 복현로20길 52,대구광역시 북구 복현동 45,35.90384538,128.6228264,대구안식원 강당 2층,09:00,18:00,00:00,00:00,00:00,00:00,2,N,Y,대구안식원,053-381-1560,2022-04-27,3450000,대구광역시 북구
성보재활원,대구광역시,북구,27230,대구광역시 북구 동북로 71길 9-29,대구광역시 북구 복현동 315,35.89337678,128.6300858,성보재활원 내 프로그램실 입구,09:00,18:00,00:00,00:00,00:00,00:00,2,N,Y,성보재활원,053-941-8328,2022-04-27,3450000,대구광역시 북구
도시철도 3호선 만평역,대구광역시,북구,27230,대구광역시 북구 팔달로 105,대구광역시 북구 노원동3가 252-3,35.8898469,128.5610731,만평역 대합실 엘리베이터 2호기 옆,06:00,23:00,06:00,23:00,06:00,23:00,2,N,Y,대구도시철도공사,053-640-2197,2022-04-27,3450000,대구광역시 북구
대구역,대구광역시,북구,27230,대구광역시 북구 태평로 161,대구광역시 북구 칠성동2가 302-155,35.87588495,128.5961292,대구역 대합실,00:00,23:59,00:00,23:59,00:00,23:59,2,N,Y,한국철도공사 대구본부,1544-7788,2022-04-27,3450000,대구광역시 북구
침산1동 행정복지센터,대구광역시,북구,27230,대구광역시 북구 침산남로13길 16,대구광역시 북구 침산동 1660-4,35.89031822,128.5813521,침산1동 행정복지센터 1층 출입문 왼쪽,09:00,18:00,00:00,00:00,00:00,00:00,2,N,Y,대구광역시 북구 침산1동 주민센터,053-665-3445,2022-04-27,3450000,대구광역시 북구
고성동 행정복지센터,대구광역시,북구,27230,대구광역시 북구 고성로31길 21,대구광역시 북구 고성동3가 6-270,35.88184584,128.5835076,고성동 행정복지센터 1층 출입문 정면,09:00,18:00,00:00,00:00,00:00,00:00,2,N,Y,대구광역시 북구 고성동 주민센터,053-665-3405,2022-04-27,3450000,대구광역시 북구
온천장역,부산광역시,동래구,26260,부산광역시 동래구 중앙대로 1520 (온천동),부산광역시 동래구 온천동 1750-1,35.22028597,129.0863784,고객서비스센터 역무실 맞은편,06:00,23:00,06:00,23:00,06:00,23:00,1,Y,N,부산광역시 동래구,051-550-4884,2022-05-12,3300000,부산광역시 동래구
사직역,부산광역시,동래구,26260,부산광역시 동래구 아시아드대로 지하 153 (사직동),부산광역시 동래구 사직동 161-87,35.19896992,129.0650572,3번 출구,06:00,00:00,06:00,00:00,06:00,00:00,1,Y,N,부산광역시 동래구,051-550-4884,2022-05-12,3300000,부산광역시 동래구
미남역,부산광역시,동래구,26260,부산광역시 동래구 아시아드대로 지하 232 (온천동),부산광역시 동래구 온천동 1470,35.20559692,129.0681236,7번 출구,06:00,00:00,06:00,00:00,06:00,00:00,1,Y,N,부산광역시 동래구,051-550-4884,2022-05-12,3300000,부산광역시 동래구
명장역,부산광역시,동래구,26260,부산광역시 동래구 반송로 지하 281 (안락동),부산광역시 동래구 명장동 184-2,35.20532999,129.1018235,3번 출구,06:00,00:00,06:00,00:00,06:00,00:00,1,Y,N,부산광역시 동래구,051-550-4884,2022-05-12,3300000,부산광역시 동래구
수안역,부산광역시,동래구,26260,부산광역시 동래구 충렬대로 지하 223 (수안동),부산광역시 동래구 수안동 204-2,35.20183707,129.0838994,지하1층 공중전화 옆,06:00,00:00,06:00,00:00,06:00,00:00,1,Y,N,부산광역시 동래구,051-550-4884,2022-05-12,3300000,부산광역시 동래구
낙민역,부산광역시,동래구,26260,부산광역시 동래구 충렬대로 지하 285 (낙민동),부산광역시 동래구 낙민동 205-4,35.20019286,129.0908266,3번 출구,06:00,00:00,06:00,00:00,06:00,00:00,1,Y,N,부산광역시 동래구,051-550-4884,2022-05-12,3300000,부산광역시 동래구
충렬사역,부산광역시,동래구,26260,부산광역시 동래구 반송로 지하 205 (안락동),부산광역시 동래구 안락동 473,35.19969107,129.097537,4번 출구,06:00,00:00,06:00,00:00,06:00,00:00,1,Y,N,부산광역시 동래구,051-550-4884,2022-05-12,3300000,부산광역시 동래구
관악구민체육센터,서울특별시,관악구,11620,서울특별시 관악구 봉천동 낙성대로3길 37 관악구민종합체육센터,서울특별시 관악구 봉천동 225,37.473067,126.960315,1층 로비,09:00,18:00,09:00,18:00,09:00,18:00,2,Y,Y,서울특별시 관악구민체육센터,02-870-7625,2022-04-27,3200000,서울특별시 관악구
청솔종합사회복지관,경기도,성남시,41135,경기도 성남시 분당구 미금로 246(금곡동),경기도 성남시 분당구 금곡동 126,37.35462448,127.1099997,청솔종합사회복지관(1층엘리베이터 앞),09:00,18:00,09:00,14:00,00:00,23:59,1,N,N,청솔종합사회복지관,070-4236-4587,2022-04-28,3780000,경기도 성남시
미금역,경기도,성남시,41135,경기도 성남시 분당구 성남대로 156,경기도 성남시 분당구 금곡동 222,37.35065324,127.1086804,미금역,06:00,23:00,06:00,23:00,06:00,23:00,1,N,N,미금역,070-4236-4587,2022-04-28,3780000,경기도 성남시
판교역,경기도,성남시,41135,경기도 성남시 분당구 판교역로 160,경기도 성남시 분당구 백현동 19-2,37.394776,127.1109483,판교역,06:00,23:00,06:00,23:00,06:00,23:00,1,N,N,판교역,070-4236-4587,2022-04-28,3780000,경기도 성남시
이매역,경기도,성남시,41135,경기도 성남시 분당구 성남대로 738,경기도 성남시 분당구 이매동 129-1,37.39568562,127.128231,이매역,06:00,23:00,06:00,23:00,06:00,23:00,1,N,N,이매역,070-4236-4587,2022-04-28,3780000,경기도 성남시
산성동복지회관,경기도,성남시,41131,경기도 성남시 수정구 수정남로 269,경기도 성남시 수정구 산성동 2115,37.45300746,127.150367,산성동복지회관,09:00,18:00,09:00,14:00,00:00,23:59,1,N,N,산성동복지회관,070-4236-4587,2022-04-28,3780000,경기도 성남시
산성동행정복지센터,경기도,성남시,41131,경기도 성남시 수정구 수정남로 261,경기도 성남시 수정구 산성동 2136,37.45221136,127.150067,산성동행정복지센터,09:00,18:00,00:00,23:59,00:00,23:59,1,N,N,산성동행정복지센터,070-4236-4587,2022-04-28,3780000,경기도 성남시
산성종합사회복지과,경기도,성남시,41131,경기도 성남시 수정구 수정남로 306번길 15-16,경기도 성남시 수정구 산성동 563,37.45570611,127.153769,산성종합사회복지관,09:00,18:00,00:00,23:59,00:00,23:59,1,N,N,산성종합사회복지과,070-4236-4587,2022-04-28,3780000,경기도 성남시
고등동행정복지센터,경기도,성남시,41131,경기도 성남시 수정구 대왕판교로 982번길 25,경기도 성남시 수정구 고등동 378-1,37.42884094,127.1048613,고등동행정복지센터,09:00,18:00,00:00,23:59,00:00,23:59,1,Y,Y,고등동행정복지센터,031-729-5890,2022-04-28,3780000,경기도 성남시
구미도서관,경기도,성남시,41135,경기도 성남시 분당구 미금일로 105,경기도 성남시 분당구 구미동 16,37.34552982,127.1076887,구미도서관,07:00,22:00,07:00,20:00,00:00,23:59,1,Y,Y,구미도서관,031-729-4690,2022-04-28,3780000,경기도 성남시
도촌종합사회복지관,경기도,성남시,41133,경기도 성남시 중원구 도촌북로 92,경기도 성남시 중원구 도촌동 647,37.41516423,127.1590865,도촌종합사회복지관,09:00,18:00,09:00,18:00,00:00,23:59,1,Y,Y,도촌종합사회복지관,031-720-8500,2022-04-28,3780000,경기도 성남시
만나교회(휴먼브릿지),경기도,성남시,41135,경기도 성남시 분당구 양현로 353,경기도 성남시 분당구 야탑동 393,37.41474683,127.1221609,만나교회(휴먼브릿지),09:00,18:00,09:00,18:00,09:00,18:00,1,Y,Y,만나교회(휴먼브릿지),031-706-3351,2022-04-28,3780000,경기도 성남시
백현동행정복지센터,경기도,성남시,41135,경기도 성남시 분당구 동판교로 21,경기도 성남시 분당구 백현동 557,37.38853828,127.1108397,백현동행정복지센터,09:00,18:00,09:00,18:00,00:00,23:59,1,Y,Y,백현동행정복지센터,031-729-8310,2022-04-28,3780000,경기도 성남시
분당노인종합복지관,경기도,성남시,41135,경기도 성남시 분당구 불정로 50,경기도 성남시 분당구 정자동 253,37.35760271,127.1125099,분당노인종합복지관,09:00,18:00,09:00,18:00,09:00,18:00,1,Y,Y,분당노인종합복지관,031-785-9200,2022-04-28,3780000,경기도 성남시
분당도서관,경기도,성남시,41135,경기도 성남시 분당구 불정로110,경기도 성남시 분당구 정자동 208,37.35810335,127.1165787,분당도서관,09:00,18:00,09:00,18:00,00:00,23:59,1,Y,Y,분당도서관,031-729-4800,2022-04-28,3780000,경기도 성남시
문현역,부산광역시,남구,33101,부산광역시 남구 전포대로 지하 17,,35.13915604,129.0672791,1번 출구,6:00,23:59,6:00,23:59,6:00,23:59,2,N,Y,부산광역시 보조기기센터,051-790-6190,2022-06-08,3310000,부산광역시 남구
분당우리교회(우리주간보호센터),경기도,성남시,41135,경기도 성남시 분당구 황새울로 311번길9,경기도 성남시 분당구 서현동 276-2,37.38481773,127.1194113,분당우리교회(우리주간보호센터),09:00,18:00,09:00,18:00,09:00,18:00,1,Y,Y,분당우리교회(우리주간보호센터),031-701-5750,2022-04-28,3780000,경기도 성남시
삼평동행정복지센터,경기도,성남시,41135,경기도 성남시 분당구 동판교로 266번길 7,경기도 성남시 분당구 삼평동 712,37.40612818,127.1163097,삼평동행정복지센터,09:00,18:00,09:00,18:00,00:00,23:59,1,Y,Y,삼평동행정복지센터,031-729-7990,2022-04-28,3780000,경기도 성남시
상대원2동 제1복지회관,경기도,성남시,41133,경기도 성남시 중원구 희망로335번길 40,경기도 성남시 중원구 상대원동 4672,37.43632679,127.1540375,상대원2동 제1복지회관,09:00,18:00,09:00,18:00,09:00,18:00,1,Y,Y,상대원2동 제1복지회관,031-733-3534,2022-04-28,3780000,경기도 성남시
샘물교회(마라톤주간보호센터),경기도,성남시,41135,"경기도 성남시 분당구 내정로 17번길 8, 분당타운",경기도 성남시 분당구 정자동 131-3,37.36189998,127.1138274,샘물교회(마라톤주간보호센터),09:00,18:00,09:00,18:00,09:00,18:00,1,Y,Y,샘물교회(마라톤주간보호센터),031-715-3390,2022-04-28,3780000,경기도 성남시
서현도서관,경기도,성남시,41135,경기도 성남시 분당구 중앙공원로 77,경기도 성남시 분당구 서현동 234,37.38358563,127.1324713,서현도서관,09:00,18:00,09:00,18:00,00:00,23:59,1,Y,Y,서현도서관,031-729-8700,2022-04-28,3780000,경기도 성남시
성남종합사회복지관,경기도,성남시,41133,경기도 성남시 중원구 금빛로 89,경기도 성남시 중원구 금광동 2957,37.44970315,127.1660806,성남종합사회복지관,09:00,18:00,09:00,18:00,09:00,18:00,1,Y,Y,성남종합사회복지관,031-748-7151,2022-04-28,3780000,경기도 성남시
성남중앙병원,경기도,성남시,41133,경기도 성남시 중원구 산성대로476번길 12,경기도 성남시 중원구 금광동 3956,37.45294525,127.162001,성남중앙병원,00:00,00:00,00:00,23:59,00:00,23:59,1,Y,Y,성남중앙병원,1577-7986,2022-04-28,3780000,경기도 성남시
수정도서관,경기도,성남시,41131,경기도 성남시 수정구 수정로332번길 32,경기도 성남시 수정구 산성동 2224,37.45224023,127.1528496,수정도서관,09:00,18:00,09:00,18:00,00:00,23:59,1,Y,Y,수정도서관,031-743-9600,2022-04-28,3780000,경기도 성남시
야탑2동행정복지센터,경기도,성남시,41135,경기도 성남시 분당구 야탑로76번길 5,경기도 성남시 분당구 야탑동 508,37.40942532,127.1273752,야탑2동행정복지센터,09:00,18:00,00:00,23:59,00:00,23:59,1,Y,Y,야탑2동행정복지센터,031-729-7850,2022-04-28,3780000,경기도 성남시
양지동행정복지센터,경기도,성남시,41131,경기도 성남시 수정구 산성대로 483,경기도 성남시 수정구 양지동 870,37.45490007,127.1609609,양지동행정복지센터,09:00,18:00,00:00,23:59,00:00,23:59,1,Y,Y,양지동행정복지센터,031-729-5830,2022-04-28,3780000,경기도 성남시
금곡양정행정복지센터,경기도,남양주시,41360,경기도 남양주시 홍유릉로 350,경기도 남양주시 금곡동 434-12,37.63208224,127.205613,금곡양정행정복지센터 1층 민원실,09:00,18:00,00:00,00:00,00:00,00:00,2,N,Y,경기도 남양주시 금곡양정행정복지센터,031-590-1989,2022-08-18,3990000,경기도 남양주시
남양주시보건소,경기도,남양주시,41360,경기도 남양주시 경춘로 522,경기도 남양주시 다산동 3159-7,37.61024303,127.1719612,남양주시 보건소 1층 접수실 앞,09:00,18:00,00:00,00:00,00:00,00:00,2,N,Y,경기도 남양주시보건소,031-590-4459,2022-08-18,3990000,경기도 남양주시
남양주시청 1청사,경기도,남양주시,41360,경기도 남양주시 경춘로 1037,경기도 남양주시 금곡동 185-10,37.63661549,127.2179957,남양주시청 종합민원실 무인민원발급기 옆,00:00,23:59,00:00,23:59,00:00,23:59,2,N,Y,경기도 남양주시청 1청사,031-590-2131,2022-08-18,3990000,경기도 남양주시
남양주시장애인복지관,경기도,남양주시,41360,경기도 남양주시 홍유릉로 273,경기도 남양주시 금곡동 615-10,37.62700612,127.2004225,남양주시장애인복지관 1층 출입문 옆(실외),00:00,23:59,00:00,23:59,00:00,23:59,2,N,Y,경기도 남양주시장애인복지관,031-593-7950,2022-08-18,3990000,경기도 남양주시
다산행정복지센터(다산1동),경기도,남양주시,41360,경기도 남양주시 다산중앙로 7,경기도 남양주시 다산동 6150,37.61392759,127.1555493,다산1동주민센터 1층 복지민원실,09:00,18:00,00:00,00:00,00:00,00:00,2,N,Y,경기도 남양주시 다산행정복지센터(다산1동),031-590-4974,2022-08-18,3990000,경기도 남양주시
별내행정복지센터,경기도,남양주시,41360,경기도 남양주시 별내3로 64-21,경기도 남양주시 별내동 1028,37.64616741,127.1218817,별내행정복지센터 1층 복지지원과,09:00,18:00,00:00,00:00,00:00,00:00,2,N,Y,경기도 남양주시 별내행정복지센터,031-590-8474,2022-08-18,3990000,경기도 남양주시
오남읍사무소,경기도,남양주시,41360,경기도 남양주시 오남읍 진건오남로 806-34,경기도 남양주시 오남읍 양지리 96-10,37.69857596,127.2048422,오남읍행정복지센터  1층 사회복지팀,09:00,21:00,00:00,00:00,00:00,00:00,2,N,Y,경기도 남양주시 오남읍사무소,031-590-8034,2022-08-18,3990000,경기도 남양주시
와부조안행정복지센터,경기도,남양주시,41360,경기도 남양주시 와부읍 월문천로 35,경기도 남양주시 와부읍 덕소리 117-1,37.58551455,127.2163294,와부조안행정복지센터 1층 생활자치과 옆 복도,09:00,21:00,09:00,18:00,09:00,18:00,2,N,Y,경기도 남양주시 와부조안행정복지센터,031-590-4815,2022-08-18,3990000,경기도 남양주시
진건퇴계원행정복지센터,경기도,남양주시,41360,경기도 남양주시 진건읍 진건오남로 41-19,경기도 남양주시 진건읍 사능리 645-1,37.65464147,127.177687,진건퇴계원행정복지센터 1층 출입문 입구,09:00,21:00,09:00,18:00,09:00,18:00,2,N,Y,경기도 남양주시 진건퇴계원행정복지센터,031-590-8044,2022-08-18,3990000,경기도 남양주시
진접오남행정복지센터,경기도,남양주시,41360,경기도 남양주시 진접읍 금강로 1509-26,경기도 남양주시 진접읍 장현리 68-39,37.72632935,127.1898639,진접오남행정복지센터 출입문 입구,09:00,21:00,09:00,18:00,09:00,18:00,2,N,Y,경기도 남양주시 진접오남행정복지센터,031-590-5815,2022-08-18,3990000,경기도 남양주시
호평평내행정복지센터,경기도,남양주시,41360,경기도 남양주시 호평로 68번길 21,경기도 남양주시 호평동 669,37.65456666,127.2489491,호평평내행정복지센터 1층 민원실 복지지원과,09:00,18:00,00:00,00:00,00:00,00:00,2,N,Y,경기도 남양주시 호평평내행정복지센터,031-590-3921,2022-08-18,3990000,경기도 남양주시
화도수동행정복지센터,경기도,남양주시,41360,경기도 남양주시 화도읍 비룡로 59,경기도 남양주시 화도읍 마석우리 548,37.65784817,127.3007103,화도수동행정복지센터 1층 당직실 옆,09:00,21:00,09:00,18:00,09:00,18:00,2,N,Y,경기도 남양주시 화도수동행정복지센터,031-590-5468,2022-08-18,3990000,경기도 남양주시
사)한국지체장애인협회경기도협회남양주시지회,경기도,남양주시,41360,경기도 남양주시 경춘로 883-2(금곡동),경기도 남양주시 금곡동 693-2,37.63256443,127.1998076,① 1층 보장구수리센터 실내,09:00,18:00,00:00,00:00,00:00,00:00,2,N,Y,사)한국지체장애인협회경기도협회남양주시지회,031-591-6930,2022-08-18,3990000,경기도 남양주시
소망재활원,경기도,성남시,41133,경기도 성남시 중원구 산성대로476번길 12 (금광동),경기도 성남시 중원구 금광동 3956,37.45294525,127.1620743,소망재활원 1층 자원봉사자실,00:00,23:59,00:00,23:59,00:00,23:59,1,N,N,소망재활원,031-741-3001,2022-04-28,3780000,경기도 성남시
중앙공원,경기도,성남시,41135,경기도 성남시 분당구 성남대로 550 (수내동),경기도 성남시 분당구 수내동 65,37.38030721,127.1211791,중앙공원 관리사무소현관 앞,09:00,18:00,09:00,18:00,09:00,18:00,1,N,N,중앙공원,031-729-4907,2022-04-28,3780000,경기도 성남시
율동공원,경기도,성남시,41135,경기도 성남시 분당구 문정로 145 (율동),경기도 성남시 분당구 율동 318,37.38335566,127.1500042,율동공원 관리사무실 내,09:00,18:00,09:00,18:00,09:00,18:00,1,N,N,율동공원,031-702-8713,2022-04-28,3780000,경기도 성남시
성남아트센터,경기도,성남시,41135,경기도 성남시 분당구 성남대로 808(야탑동),경기도 성남시 분당구 야탑동 757,37.40295613,127.1305583,성남아트센터 1층 아이프라자,09:00,18:00,09:00,18:00,09:00,18:00,1,N,N,성남아트센터,070-4236-4587,2022-04-28,3780000,경기도 성남시
대연역,부산광역시,남구,33101,부산광역시 남구 수영로 지하 242,,35.13511991,129.0922991,1번 출구,6:00,23:59,6:00,23:59,6:00,23:59,2,N,Y,부산광역시 보조기기센터,051-790-6190,2022-06-08,3310000,부산광역시 남구
정자2동 주민센터,경기도,성남시,41135,경기도 성남시 분당구 내정로 66(정자동),경기도 성남시 분당구 정자동 118,37.36600484,127.115252,정자2동 주민센터(민원실 입구),09:00,18:00,00:00,23:59,00:00,23:59,1,N,N,정자2동 주민센터,070-4236-4587,2022-04-28,3780000,경기도 성남시
금곡동주민센터,경기도,성남시,41135,경기도 성남시 분당구 성남대로171번길 14(금곡동),경기도 성남시 분당구 금곡동 174,37.35163573,127.107075,금곡동주민센터(정문 우측),09:00,18:00,00:00,23:59,00:00,23:59,1,N,N,금곡동주민센터,070-4236-4587,2022-04-28,3780000,경기도 성남시
야탑역,경기도,성남시,41135,경기도 성남시 분당구 성남대로 903 (야탑동),경기도 성남시 분당구 야탑동 488-1,37.41105289,127.1287289,야탑역(모란방면),06:00,23:00,06:00,23:00,06:00,23:00,1,N,N,야탑역,070-4236-4587,2022-04-28,3780000,경기도 성남시
분당서현청소년수련관,경기도,성남시,41135,경기도 성남시 분당구 불정로386번길 38(서현동),경기도 성남시 분당구 서현동 312-5,37.3721504,127.139872,분당서현청소년수련관(주차장입구 안쪽),06:00,22:00,06:00,20:00,09:00,18:00,1,N,N,분당서현청소년수련관,031-729-9400,2022-04-28,3780000,경기도 성남시
분당정자청소년수련관,경기도,성남시,41135,경기도 성남시 분당구 성남대로407번길 12(정자동),경기도 성남시 분당구 정자동 6-1,37.372751,127.106311,분당정자청소년수련관(1층 정문 안쪽),06:00,22:00,06:00,20:00,09:00,18:00,1,N,N,분당정자청소년수련관,031-729-9500,2022-04-28,3780000,경기도 성남시
분당판교청소년수련관,경기도,성남시,41135,경기도 성남시 분당구 운중로 225번길 37(판교동),경기도 성남시 분당구 판교동 553,37.391874,127.090854,분당판교청소년수련관(1층 로비),06:00,22:00,06:00,20:00,09:00,18:00,1,N,N,분당판교청소년수련관,031-729-9600,2022-04-28,3780000,경기도 성남시
남한산성입구역,경기도,성남시,41131,경기도 성남시 수정구 산성대로 지하 445 (단대동),경기도 성남시 수정구 단대동 96,37.45156789,127.159801,남한산성입구역 대합실 엘리베이터 앞,06:00,23:00,06:00,23:00,06:00,23:00,1,N,N,남한산성입구역,070-4236-4587,2022-04-28,3780000,경기도 성남시
신흥역,경기도,성남시,41131,경기도 성남시 수정구 산성대로 지하 280 (신흥동),경기도 성남시 수정구 신흥동 2467,37.44118543,127.1481082,신흥역 대합실 4번 출구 방향,06:00,23:00,06:00,23:00,06:00,23:00,1,N,N,신흥역,070-4236-4587,2022-04-28,3780000,경기도 성남시
수진역,경기도,성남시,41131,경기도 성남시 수정구 산성대로 지하 200 (수진동),경기도 성남시 수정구 수진동 2205-1,37.43746109,127.1403539,수진역 개찰구 입구,06:00,23:00,06:00,23:00,06:00,23:00,1,N,N,수진역,070-4236-4587,2022-04-28,3780000,경기도 성남시
서현역,경기도,성남시,41135,경기도 성남시 분당구 성남대로 지하 601 (서현동),경기도 성남시 분당구 서현동 263,37.38501543,127.1234315,서현역 대합실 옆,06:00,23:00,06:00,23:00,06:00,23:00,1,N,N,서현역,031-701-2779,2022-04-28,3780000,경기도 성남시
중원구보건소,경기도,성남시,41133,경기도 성남시 중원구 금상로 137(상대원동),경기도 성남시 중원구 상대원동 269-10,37.44215706,127.1705795,중원구보건소,09:00,18:00,09:00,18:00,09:00,18:00,1,N,N,중원구보건소,070-4236-4587,2022-04-28,3780000,경기도 성남시
은행2동 주민센터,경기도,성남시,41133,경기도 성남시 중원구 은이로 21(은행동),경기도 성남시 중원구 은행동 2476,37.457058,127.1665174,은행2동 주민센터,09:00,18:00,00:00,23:59,00:00,23:59,1,N,N,은행2동 주민센터,070-4236-4587,2022-04-28,3780000,경기도 성남시
분당IL센터,경기도,성남시,41135,경기도 성남시 분당구 황새울로351번길10(서현동),경기도 성남시 분당구 서현동 254-4,37.387656,127.123144,분당IL센터,09:00,18:00,00:00,23:59,00:00,23:59,1,N,N,분당IL센터,031-701-2779,2022-04-28,3780000,경기도 성남시
분당구보건소,경기도,성남시,41135,경기도 성남시 분당구 양현로 306(야탑동),경기도 성남시 분당구 야탑동 349,37.411033,127.124615,분당구보건소,09:00,18:00,09:00,18:00,09:00,18:00,1,N,N,분당구보건소,070-4236-4587,2022-04-28,3780000,경기도 성남시
성남시장애인연합회,경기도,성남시,41131,"경기도 성남시 수정구 수정남로 10, 303호(수진동)",경기도 성남시 수정구 수진동 3042,37.439054,127.129249,성남시장애인연합회,00:00,23:59,00:00,23:59,00:00,23:59,1,N,N,성남시장애인연합회,031-734-0420,2022-04-28,3780000,경기도 성남시
수정구청소년수련관,경기도,성남시,41131,경기도 성남시 수정구 희망로509번길 20(신흥동),경기도 성남시 수정구 신흥동 466,37.449334,127.150194,수정구청소년수련관,06:00,18:00,06:00,18:00,09:00,18:00,1,N,N,수정구청소년수련관,070-4236-4587,2022-04-28,3780000,경기도 성남시
중원노인종합복지관,경기도,성남시,41133,경기도 성남시 중원구 제일로35번길 51 (성남동),경기도 성남시 중원구 성남동 3439,37.432081,127.131569,중원노인종합복지관 지하1층 식당 앞,09:00,18:00,09:00,14:00,00:00,23:59,1,N,N,중원노인종합복지관,031-751-7450,2022-04-28,3780000,경기도 성남시
한마음복지관,경기도,성남시,41135,경기도 성남시 분당구 야탑로 227 (야탑동),경기도 성남시 분당구 야탑동 171,37.40822752,127.1441532,한마음복지관 B1 로비 엘리베이터 앞,09:00,18:00,09:00,14:00,00:00,23:59,1,N,N,한마음복지관,031-725-9597,2022-04-28,3780000,경기도 성남시
서울장애인자립생활센터,서울특별시,송파구,11710,"서울특별시 송파구 오금로 507, 거여빌딩 6층",,37.493235,127.145180,6층 열린공간,09:00,17:00,00:00,00:00,00:00,00:00,1,N,N,서울특별시 송파구,02-2147-5000,2020-02-18,3230000,서울특별시 송파구
송파구 보건지소,서울특별시,송파구,11710,서울특별시 송파구 양산로 5,,37.489771,127.142672,송파구 보건지소 1층 현관 로비,09:00,17:00,00:00,00:00,00:00,00:00,2,N,Y,서울특별시 송파구,02-2147-5000,2020-02-18,3230000,서울특별시 송파구
가락본동주민센터,서울특별시,송파구,11710,서울특별시 송파구 송파대로 28길 39,,37.495579,127.121763,가락본동주민센터 1층 민원대기실,09:00,17:00,00:00,00:00,00:00,00:00,2,N,Y,서울특별시 송파구,02-2147-5000,2020-02-18,3230000,서울특별시 송파구
석촌역,서울특별시,송파구,11710,서울특별시 송파구 송파대로 지하 439,,37.505948,127.106344,석촌역 지하 1층 화장실 옆,05:00,23:00,05:00,23:00,05:00,23:00,2,N,Y,서울특별시 송파구,02-2147-5000,2020-02-18,3230000,서울특별시 송파구
장지역,서울특별시,송파구,11710,서울특별시 송파구 송파대로 지하 82,,37.478120,127.126424,장지역 지하 1층 EV 4호기 앞,05:00,23:00,05:00,23:00,05:00,23:00,2,N,Y,서울특별시 송파구,02-2147-5000,2020-02-18,3230000,서울특별시 송파구
삼전역,서울특별시,송파구,11710,서울특별시 송파구 백제고분로 지하 189,,37.5043233109,127.0880837903,삼전역 지하 1층 역무창고 옆,05:00,23:00,05:00,23:00,05:00,23:00,2,N,Y,서울특별시 송파구,02-2147-5000,2020-02-18,3230000,서울특별시 송파구
석촌고분역,서울특별시,송파구,11710,서울특별시 송파구 백제고분로 지하 274,,37.502489,127.0968847883,석촌고분역 지하 1층 EV 3호기 앞,05:00,23:00,05:00,23:00,05:00,23:00,2,N,Y,서울특별시 송파구,02-2147-5000,2020-02-18,3230000,서울특별시 송파구
석촌역,서울특별시,송파구,11710,서울특별시 송파구 백제고분로 지하 368,,37.505100,127.107117,석촌역 지하 1층 자동문 옆,05:00,23:00,05:00,23:00,05:00,23:00,2,N,Y,서울특별시 송파구,02-2147-5000,2020-02-18,3230000,서울특별시 송파구
송파나루역,서울특별시,송파구,11710,서울특별시 송파구 백제고분로 지하 446,,37.5103503787,127.1122320440,송파나루역 지하 1층 민원발급기 옆,05:00,23:00,05:00,23:00,05:00,23:00,2,N,Y,서울특별시 송파구,02-2147-5000,2020-02-18,3230000,서울특별시 송파구
한성백제역,서울특별시,송파구,11710,서울특별시 송파구 위례성대로 지하 29,,37.5163401025,127.1161140444,한성백제역 지하 1층 편의점 옆,05:00,23:00,05:00,23:00,05:00,23:00,2,N,Y,서울특별시 송파구,02-2147-5000,2020-02-18,3230000,서울특별시 송파구
올림픽공원역,서울특별시,송파구,11710,서울특별시 송파구 양재대로 지하 1231,,37.516887,127.130919,올림픽공원역 지하 1층 편의점 물품보관함 옆,05:00,23:00,05:00,23:00,05:00,23:00,2,N,Y,서울특별시 송파구,02-2147-5000,2020-02-18,3230000,서울특별시 송파구
혜남학교,부산광역시,남구,33101,부산광역시 남구 진남로166번길 10-19,,35.14150187,129.0822558,1층 복도 좌측 도서관,8:30,16:30,0:00,0:00,0:00,0:00,2,N,Y,부산광역시 보조기기센터,051-790-6190,2022-06-08,3310000,부산광역시 남구
인성장애인복지관,서울특별시,송파구,11710,서울특별시 송파구 마천로61길 26?,,37.493896,127.155182,인성장애인복지관 지하 1층 보조계단 앞,09:00,17:00,00:00,00:00,00:00,00:00,2,Y,Y,서울특별시 송파구,02-2147-5000,2020-02-18,3230000,서울특별시 송파구
송파구장애인운전교육원,서울특별시,송파구,11710,서울특별시 송파구 삼학사로2길 49?,,37.496666,127.100541,송파구장애인운전교육원 조립식건물 출입문 우측,09:00,17:00,00:00,00:00,00:00,00:00,2,N,Y,서울특별시 송파구,02-2147-5000,2020-02-18,3230000,서울특별시 송파구
서울지체장애인협회 송파구지회,서울특별시,송파구,11710,서울특별시 송파구 문정로 170,,37.493983,127.137841,서울지체장애인협회 송파구지회 조립식건물 출입문 좌측,09:00,17:00,00:00,00:00,00:00,00:00,2,N,Y,서울특별시 송파구,02-2147-5000,2020-02-18,3230000,서울특별시 송파구
송파노인종합복지관,서울특별시,송파구,11710,서울특별시 송파구 백제고분로32길 41,,37.498667,127.094894,"송파노인종합복지관 실외, 1층 출입구",00:00,24:00,00:00,24:00,00:00,24:00,2,Y,Y,서울특별시 송파구,02-2147-5000,2020-02-18,3230000,서울특별시 송파구
송파안전체험교육관,서울특별시,송파구,11710,서울특별시 송파구 성내천로 35길 53,,37.500386,127.158815,송파안전체험교육관 1층 로비,09:00,17:00,09:00,15:00,00:00,00:00,2,N,Y,서울특별시 송파구,02-2147-5000,2020-02-18,3230000,서울특별시 송파구
아산병원,서울특별시,송파구,11710,서울특별시 송파구 올림픽로 43길 88,,37.525158,127.109526,아산병원 동관 후문 옆,04:00,24:00,04:00,24:00,04:00,24:00,2,N,Y,서울특별시 송파구,02-2147-5000,2020-02-18,3230000,서울특별시 송파구
악양면사무소,경상남도,하동군,54400,경상남도 하동군 악양면 악양서로 357,경상남도 하동군 악양면 정서리 285-1,35.16239,127.70904,청사 내부 출입구,9:00,18:00,9:00,18:00,9:00,18:00,2,N,N,경상남도 하동군 악양면사무소,055-880-6108,2022-05-31,5440000,경상남도 하동군
횡천면사무소,경상남도,하동군,54400,경상남도 하동군 횡천면 경서대로 1175-3,경상남도 하동군 횡천면 횡천리 570,35.10984364,127.8137049,청사 내부 출입구,9:00,18:00,9:00,18:00,9:00,18:00,2,N,Y,경상남도 하동군 횡천면사무소,055-880-6168,2022-05-31,5440000,경상남도 하동군
양보면사무소,경상남도,하동군,54400,경상남도 하동군 양보면 진양로 736,경상남도 하동군 양보면 운암리 226-1,35.04747639,127.8456616,청사 내부 출입구,9:00,18:00,9:00,18:00,9:00,18:00,2,N,Y,경상남도 하동군 양보면사무소,055-880-6328,2022-05-31,5440000,경상남도 하동군
진교면사무소,경상남도,하동군,54400,경상남도 하동군 진교면 민다리안길 62,경상남도 하동군 진교면 진교리 338-1,35.03027543,127.9007201,청사 내부 출입구,9:00,19:00,9:00,18:00,9:00,18:00,2,Y,N,경상남도 하동군 진교면사무소,055-880-6296,2022-05-31,5440000,경상남도 하동군
북천면사무소,경상남도,하동군,54400,경상남도 하동군 북천면 경서대로 2451,경상남도 하동군 북천면 직전리 631-4,35.114764,127.8926961,청사 내부 출입구,9:00,18:00,9:00,18:00,9:00,18:00,2,N,Y,경상남도 하동군 북천면사무소,055-880-6334,2022-05-31,5440000,경상남도 하동군
옥종면사무소,경상남도,하동군,54400,경상남도 하동군 옥종면 덕천로 3,경상남도 하동군 옥종면 청룡리 119-4,35.182957,127.8793517,청사 내부 출입구,9:00,18:00,9:00,18:00,9:00,18:00,2,N,Y,경상남도 하동군 옥종면사무소,055-880-6418,2022-05-31,5440000,경상남도 하동군
알프스하동종합복지관,경상남도,하동군,54400,경상남도 하동군 하동읍 중앙로 89,경상남도 하동군 하동읍 읍내리 987-1,35.07210479,127.743045,시설 부출입구,9:00,18:00,9:00,18:00,9:00,18:00,2,Y,N,알프스하동종합복지관,055-880-9908,2022-05-31,5440000,경상남도 하동군
하남문화예술회관 전동휠체어급속충전기,경기도,하남시,41450,경기도 하남시 신평로 125,경기도 하남시 덕풍동 694번지,37.5444483,127.207089,하남문화예술회관 전동휠체어급속충전기,9:00,18:00,0:00,0:00,0:00,0:00,1,N,N,경기도 하남시청 노인장애인복지과,031-790-5718,2022-05-24,4040000,경기도 하남시
하남종합운동장 전동휠체어급속충전기,경기도,하남시,41450,경기도 하남시 아리수로 600,경기도 하남시 망월동 200번지,37.5669047,127.194202,하남종합운동장 전동휠체어급속충전기,9:00,18:00,0:00,0:00,0:00,0:00,1,N,N,경기도 하남시청 노인장애인복지과,031-790-5718,2022-05-24,4040000,경기도 하남시
홈플러스 하남점 전동휠체어급속충전기,경기도,하남시,41450,경기도 하남시 하남대로 747,경기도 하남시 신장동 570번지,37.5379965,127.212604,홈플러스 하남점,9:00,18:00,0:00,0:00,0:00,0:00,1,N,N,경기도 하남시청 노인장애인복지과,031-790-5718,2022-05-24,4040000,경기도 하남시
하남유니온파크 전동휠체어급속충전기,경기도,하남시,41450,경기도 하남시 미사대로 710,경기도 하남시 신장동 27번지,37.5471474,127.219318,하남유니온파크 1층 로비,9:00,18:00,0:00,0:00,0:00,0:00,1,N,N,경기도 하남시청 노인장애인복지과,031-790-5718,2022-05-24,4040000,경기도 하남시
하남시청 본관 전동휠체어급속충전기,경기도,하남시,41450,경기도 하남시 대청로 10,경기도 하남시 신장동 520번지,37.539029,127.214611,하남시청 본관 1층 로비,9:00,18:00,0:00,0:00,0:00,0:00,1,N,N,경기도 하남시청 노인장애인복지과,031-790-5718,2022-05-24,4040000,경기도 하남시
하남시종합사회복지관 전동휠체어급속충전기,경기도,하남시,41450,경기도 하남시 덕풍천서로 9,경기도 하남시 신장동 521-5번지,37.5416853,127.215522,하남시종합사회복지관 1층 로비,9:00,18:00,0:00,0:00,0:00,0:00,1,N,N,경기도 하남시청 노인장애인복지과,031-790-5718,2022-05-24,4040000,경기도 하남시
하남시장애인복지관 전동휠체어급속충전기,경기도,하남시,41450,경기도 하남시 미사강변남로 56,경기도 하남시 풍산동 산58-5번지,37.5598054,127.188332,하남시장애인복지관 1층 어린이집쪽 야외,9:00,18:00,0:00,0:00,0:00,0:00,1,N,N,경기도 하남시청 노인장애인복지과,031-790-5718,2022-05-24,4040000,경기도 하남시
춘궁동 노인복지회관 전동휠체어급속충전기,경기도,하남시,41450,경기도 하남시 서하남로 488,경기도 하남시 춘궁동 334-1번지,37.5220632,127.193691,춘궁동 노인복지회관 1층 로비,9:00,18:00,0:00,0:00,0:00,0:00,1,N,N,경기도 하남시청 노인장애인복지과,031-790-5718,2022-05-24,4040000,경기도 하남시
덕풍3동행정복지센터 전동휠체어급속충전기,경기도,하남시,41450,경기도 하남시 덕풍서로 66,경기도 하남시 덕풍동 737번지,37.5525887,127.204521,덕풍3동주민센터 1층 로비,9:00,18:00,0:00,0:00,0:00,0:00,1,N,N,경기도 하남시청 노인장애인복지과,031-790-5718,2022-05-24,4040000,경기도 하남시
미사2동행정복지센터 전동휠체어급속충전기,경기도,하남시,41450,경기도 하남시 아리수로 531,경기도 하남시 망월동 981번지,37.567134,127.186053,미사2동주민센터 1층 로비,9:00,18:00,0:00,0:00,0:00,0:00,1,N,N,경기도 하남시청 노인장애인복지과,031-790-5718,2022-05-24,4040000,경기도 하남시
천현동 다목적복지회관 전동휠체어급속충전기,경기도,하남시,41450,경기도 하남시 검단로19번길 27,경기도 하남시 하산곡동 69-1번지,37.5235783,127.223651,천현동 다목적복지회관 1층,9:00,18:00,0:00,0:00,0:00,0:00,1,N,N,경기도 하남시청 노인장애인복지과,031-790-5718,2022-05-24,4040000,경기도 하남시
하남장애인자립생활센터 전동휠체어급속충전기,경기도,하남시,41450,경기도 하남시 신장로 94,경기도 하남시 신장동 432-33번지,37.5370682,127.207646,하남장애인자립생활센터 내,9:00,18:00,0:00,0:00,0:00,0:00,1,N,N,경기도 하남시청 노인장애인복지과,031-790-5718,2022-05-24,4040000,경기도 하남시
위례동행정복지센터 전동휠체어급속충전기,경기도,하남시,41450,경기도 하남시 위례순환로 310,경기도 하남시 학암동 668번지,37.47720239,127.1524211,위례동행정복지센터 전동휠체어급속충전기,9:00,18:00,0:00,0:00,0:00,0:00,1,N,N,경기도 하남시청 노인장애인복지과,031-790-5718,2022-05-24,4040000,경기도 하남시
덕풍2동행정복지센터 전동휠체어급속충전기,경기도,하남시,41450,경기도 하남시 덕풍공원로 12,경기도 하남시 덕풍동 693번지,37.5422653,127.198065,덕풍2동행정복지센터 전동휠체어급속충전기,9:00,18:00,0:00,0:00,0:00,0:00,1,N,N,경기도 하남시청 노인장애인복지과,031-790-5718,2022-05-24,4040000,경기도 하남시
양촌역,경기도,김포시,41570,경기도 김포시 양촌읍 양촌역길 107,,37.64164494,126.6147937,역사 내,06:00,23:59,06:00,23:59,06:00,23:59,2,N,Y,경기도 김포시,031-8048-1700,2022-04-29,4090000,경기도 김포시
부안읍사무소,전라북도,부안군,47900,전라북도 부안군 부안읍 석정로 182,전라북도 부안군 부안읍 동중리 123-2,35.72956774,126.7366924,읍사무소 로비,09:00,18:00,00:00,00:00,00:00,00:00,2,Y,Y,전라북도 부안군청,063-580-4420,2022-06-03,4790000,전라북도 부안군
보안면사무소,전라북도,부안군,47900,전라북도 부안군 보안면 영전길 19-29,전라북도 부안군 보안면 영전리 390-2,35.61235552,126.6711059,면사무소 로비,09:00,18:00,09:00,18:00,09:00,18:00,2,Y,Y,전라북도 부안군청,063-580-4420,2022-06-03,4790000,전라북도 부안군
사북면 행정복지센터,강원도,춘천시,41800,강원도 춘천시 사북면 영서로 4721,강원도 춘천시 사북면 신포리 413-3,38.029758,127.640629,1층 후문 입구,09:00,18:00,00:00,00:00,00:00,00:00,2,N,Y,강원도 춘천시 사북면,033-245-5504,2022-06-08,4180000,강원도 춘천시
서면 행정복지센터,강원도,춘천시,41800,강원도 춘천시 서면 금산길 31,강원도 춘천시 서면 금산리 925-2,37.898714,127.692788,1층 화장실 맞은편,09:00,18:00,00:00,00:00,00:00,00:00,2,N,Y,강원도 춘천시 서면,033-245-5484,2022-06-08,4180000,강원도 춘천시
후평3동 행정복지센터,강원도,춘천시,41800,강원도 춘천시 후만로 83,강원도 춘천시 후평동 805-1,37.876522,127.753865,1층 엘리베이터 맞은편,09:00,18:00,00:00,00:00,00:00,00:00,2,N,Y,강원도 춘천시 후평3동,033-245-5689,2022-06-08,4180000,강원도 춘천시
효자2동 행정복지센터,강원도,춘천시,41800,강원도 춘천시 돌담길10번길 8,강원도 춘천시 효자동 148-31,37.872413,127.736335,1층 민원실 옆,09:00,18:00,00:00,00:00,00:00,00:00,2,N,Y,강원도 춘천시 효자2동,033-245-5732,2022-06-08,4180000,강원도 춘천시
효자3동 행정복지센터,강원도,춘천시,41800,강원도 춘천시 두하길 21,강원도 춘천시 효자동 44-49,37.876471,127.741376,1층 민원실 입구,09:00,18:00,00:00,00:00,00:00,00:00,2,N,Y,강원도 춘천시 효자3동,033-245-5750,2022-06-08,4180000,강원도 춘천시
석사동 행정복지센터,강원도,춘천시,41800,강원도 춘천시 퇴계로 249,강원도 춘천시 석사동 665,37.855328,127.746467,1층 로비 무인민원발급기 바로 옆,09:00,18:00,00:00,00:00,00:00,00:00,2,N,Y,강원도 춘천시 석사동,033-245-5779,2022-06-08,4180000,강원도 춘천시
퇴계동 행정복지센터,강원도,춘천시,41800,강원도 춘천시 퇴계로 46,강원도 춘천시 퇴계동 1178,37.864497,127.726183,1층 민원실 앞,09:00,18:00,00:00,00:00,00:00,00:00,2,Y,Y,강원도 춘천시 퇴계동,033-245-5810,2022-06-08,4180000,강원도 춘천시
이디오피아전쟁기념관,강원도,춘천시,41800,강원도 춘천시 이디오피아길 1,강원도 춘천시 근화동 365-1,37.873799,127.711789,1층 로비 입구,09:00,18:00,09:00,18:00,09:00,18:00,2,N,Y,강원도 춘천시 춘천도시공사 이디오피아한국전쟁참전기념관,033-240-1649,2022-06-08,4180000,강원도 춘천시
춘천시립도서관,강원도,춘천시,41800,강원도 춘천시 우석로 100,강원도 춘천시 석사동 산 32-1,37.861991,127.755017,1층 정문 입구,09:00,18:00,00:00,00:00,00:00,00:00,2,N,N,강원도 춘천시 춘천시립도서관,033-245-5111,2022-06-08,4180000,강원도 춘천시
장애인스포츠센터,강원도,춘천시,41800,강원도 춘천시 평화로 26,강원도 춘천시 근화동 175,37.885509,127.721593,1층 현관,09:00,18:00,00:00,00:00,00:00,00:00,1,N,Y,강원도 춘천시 춘천도시공사 장애인스포츠센터,033-240-1752,2022-06-08,4180000,강원도 춘천시
춘천역,강원도,춘천시,41800,강원도 춘천시 공지로 591,강원도 춘천시 근화동 190,37.884658,127.717005,남자화장실 입구 옆,04:30,23:59,04:30,23:59,04:30,23:59,2,N,N,한국철도공사 서울본부 춘천관리역 춘천역,033-241-7758,2022-06-08,4180000,강원도 춘천시
남춘천역,강원도,춘천시,41800,강원도 춘천시 영서로 2260,강원도 춘천시 퇴계동 633-2,37.864044,127.723915,맞이방 안쪽,04:30,23:59,04:30,23:59,04:30,23:59,1,N,N,한국철도공사 서울본부 춘천관리역 남춘천역,033-257-7022,2022-06-08,4180000,강원도 춘천시
김유정역,강원도,춘천시,41800,강원도 춘천시 신동면 김유정로 1435,강원도 춘천시 신동면 증리 945-2,37.819633,127.716617,맞이방 안쪽,04:30,23:59,04:30,23:59,04:30,23:59,1,N,N,한국철도공사 서울본부 춘천관리역 김유정역,033-261-7780,2022-06-08,4180000,강원도 춘천시
농소1동 행정복지센터,울산광역시,북구,31200,울산광역시 북구 호계2길 10,울산광역시 북구 호계동 874-1,35.62279518,129.3560691,정문입구,09:00,18:00,00:00,00:00,00:00,00:00,1,N,N,울산광역시 북구청,052-241-7695,2022-06-07,3720000,울산광역시 북구
농소2동 행정복지센터,울산광역시,북구,31200,울산광역시 북구 찬샘1길 24,울산광역시 북구 신천동 203-2,35.63828969,129.348312,민원인 대기석 옆,09:00,18:00,00:00,00:00,00:00,00:00,1,N,N,울산광역시 북구청,052-241-7695,2022-06-07,3720000,울산광역시 북구
강동동 행정복지센터,울산광역시,북구,31200,울산광역시 북구 무룡로 1096,울산광역시 북구 정자동 280-6,35.61282787,129.4456427,정문입구,09:00,18:00,00:00,00:00,00:00,00:00,1,N,N,울산광역시 북구청,052-241-7695,2022-06-07,3720000,울산광역시 북구
송정동 행정복지센터,울산광역시,북구,31200,울산광역시 북구 송내14길 41,울산광역시 북구 화봉동 1469,35.59231236,129.365196,정문입구,09:00,18:00,00:00,00:00,00:00,00:00,1,N,N,울산광역시 북구청,052-241-7695,2022-06-07,3720000,울산광역시 북구
양정동 행정복지센터,울산광역시,북구,31200,울산광역시 북구 오치골3길 16-1,울산광역시 북구 양정동 488-3,35.54866157,129.3853327,정문입구,09:00,18:00,00:00,00:00,00:00,00:00,1,N,N,울산광역시 북구청,052-241-7695,2022-06-07,3720000,울산광역시 북구
염포동 행정복지센터,울산광역시,북구,31200,울산광역시 북구 염포로 707,울산광역시 북구 염포동 362-1,35.53070699,129.3943467,정문입구,09:00,18:00,00:00,00:00,00:00,00:00,1,N,N,울산광역시 북구청,052-241-7695,2022-06-07,3720000,울산광역시 북구
명촌문화센터,울산광역시,북구,31200,울산광역시 북구 명촌12길 11,울산광역시 북구 명촌동 864-2,35.55514051,129.3553525,정문입구,09:00,18:00,00:00,00:00,00:00,00:00,1,N,N,울산광역시 북구청,052-241-7695,2022-06-07,3720000,울산광역시 북구
천곡문화센터,울산광역시,북구,31200,울산광역시 북구 천곡남로 121,울산광역시 북구 천곡동 266-2,35.6388713,129.3321122,정문입구,09:00,18:00,00:00,00:00,00:00,00:00,1,N,N,울산광역시 북구청,052-241-7695,2022-06-07,3720000,울산광역시 북구
북구 보건소,울산광역시,북구,31200,울산광역시 북구 산업로 1018,울산광역시 북구 연암동 1082,35.58355565,129.3607116,1층 상담실 근처,09:00,18:00,00:00,00:00,00:00,00:00,1,N,N,북구 보건소,052-289-3450,2022-06-07,3720000,울산광역시 북구
울산북구노인복지관,울산광역시,북구,31200,울산광역시 북구 새장터2길 11,울산광역시 북구 염포동 139-1,35.53586622,129.3899055,정문입구,09:00,18:00,00:00,00:00,00:00,00:00,1,N,N,울산북구노인복지관,052-296-3901,2022-06-07,3720000,울산광역시 북구
하동읍사무소,경상남도,하동군,54400,경상남도 하동군 하동읍 중앙로 70,경상남도 하동군 하동읍 읍내리 1198-1,35.07211769,127.7452912,청사 내부 복도,9:00,18:00,9:00,18:00,9:00,18:00,2,N,Y,경상남도 하동군 하동읍사무소,055-880-6044,2022-05-31,5440000,경상남도 하동군
화개면사무소,경상남도,하동군,54400,경상남도 하동군 화개면 쌍계로 71-9,경상남도 하동군 화개면 탑리 579,35.19379649,127.6269685,청사 내부 휴게실,9:00,18:00,9:00,18:00,9:00,18:00,2,N,Y,경상남도 하동군 화개면사무소,055-880-6078,2022-05-31,5440000,경상남도 하동군
조치원읍사무소,세종특별자치시,없음,36110,세종특별자치시 조치원읍 새내16길 17,세종특별자치시 조치원읍 교리 9-1,36.60458294,127.2984658,조치원읍사무소 복지행정과 왼편,09:00,18:00,09:00,18:00,09:00,18:00,2,Y,Y,조치원읍사무소,044-301-5163,2021-10-28,5690000,세종특별자치시
포천시보건소 1층 로비,경기도,포천시,41650,경기도 포천시 포천로 1612(신읍동),경기도 포천시 신읍동 164-3,37.90082576,127.2012628,포천시보건소 1층 로비,09:00,18:00,00:00,00:00,00:00,00:00,1,N,N,포천시보건소 1층 로비,031-538-3621,2022-06-07,5600000,경기도 포천시
포천나눔의집 장애인자립생활센터,경기도,포천시,41650,"경기도 포천시 중앙로197번길 17, 진성빌딩 4층",경기도 포천시 신읍동 210-17,37.9029527,127.2060124,포천나눔의집 장애인자립생활센터,09:00,18:00,00:00,00:00,00:00,00:00,1,N,N,포천나눔의집 장애인자립생활센터,031-531-2023,2022-06-07,5600000,경기도 포천시
포천장애인자립생활센터,경기도,포천시,41650,경기도 포천시 신북면 청신로 2072,경기도 포천시 신북면 신평리 605-2,37.93739576,127.2199321,포천장애인자립생활센터,09:00,18:00,00:00,00:00,00:00,00:00,1,N,N,포천장애인자립생활센터,031-531-6368,2022-06-07,5600000,경기도 포천시
포천시청 민원토지과,경기도,포천시,41650,경기도 포천시 중앙로 87(신읍동),경기도 포천시 신읍동 58-2,37.89469975,127.2003366,포천시청 민원토지과,09:00,18:00,00:00,00:00,00:00,00:00,1,N,N,포천시청 민원토지과,031-538-2135,2022-06-07,5600000,경기도 포천시
전동휠체어급속충전기,경기도,과천시,41290,경기도 과천시 통영로 5,경기도 과천시 중앙동 6-2,37.42819272,126.9891096,과천도시공사 1층 정문 로비,05:30,22:30,05:30,20:00,06:00,21:00,2,N,Y,과천도시공사,02-504-7300,2022-07-20,3970000,경기도 과천시
전동휠체어급속충전기,경기도,과천시,41290,경기도 과천시 문원로 57,경기도 과천시 문원동 15-168,37.42806439,127.0042028,과천시 노인복지관 출입구 좌측 벽,00:00,23:59,00:00,23:59,00:00,23:59,2,N,Y,과천시노인복지관,02-502-8500,2022-07-20,3970000,경기도 과천시
전동휠체어급속충전기,경기도,과천시,41290,경기도 과천시 과천대로 608-7,경기도 과천시 과천동 538-9,37.4480999,126.9952376,과천시 과천동마을회관 출입구 우측 벽,00:00,23:59,00:00,23:59,00:00,23:59,1,N,N,과천동주민센터,02-2150-3500,2022-07-20,3970000,경기도 과천시
전동휠체어급속충전기,경기도,과천시,41290,경기도 과천시 문원로 40,경기도 과천시 문원동 31-3,37.42885723,127.0020101,과천시장애인복지관 지하1층 보조공학실 앞 복도,09:00,20:00,00:00,00:00,00:00,00:00,2,Y,Y,과천시장애인복지관,02-2185-8000,2022-07-20,3970000,경기도 과천시
전동휠체어급속충전기,경기도,과천시,41290,경기도 과천시 문원로 40,경기도 과천시 문원동 31-3,37.42885723,127.0020101,과천시장애인복지관 지하1층 출입구 앞,00:00,23:59,00:00,23:59,00:00,23:59,2,Y,Y,과천시장애인복지관,02-2185-8000,2022-07-20,3970000,경기도 과천시
전동휠체어급속충전기,경기도,과천시,41290,경기도 과천시 문원로 40,경기도 과천시 문원동 31-3,37.42885723,127.0020101,과천시장애인복지관 1층 출입구,00:00,23:59,00:00,23:59,00:00,23:59,2,Y,N,과천시장애인복지관,02-2185-8000,2022-07-20,3970000,경기도 과천시
전동휠체어급속충전기,경기도,과천시,41290,경기도 과천시 중앙로 지하 100,경기도 과천시 별양동 1,37.42599694,126.990187,정부과천청사역 1번 출구방향,00:00,23:59,00:00,23:59,00:00,23:59,1,N,N,정부과천청사역,02-502-7067,2022-07-20,3970000,경기도 과천시
전동휠체어급속충전기,경기도,과천시,41290,,경기도 과천시 별양동 2,37.43345278,126.9974568,과천역 4번 출구방향 북쪽 고객지원실 앞,05:00,23:59,05:00,23:59,05:00,23:59,1,N,Y,과천역,02-3679-8831,2022-07-20,3970000,경기도 과천시
청라2동 행정복지센터,인천광역시,서구,28260,인천광역시 서구 청라커낼로 269,인천광역시 서구 청라동 155-14,37.53264131,126.6441471,1층 민원실 내,09:00,18:00,00:00,00:00,00:00,00:00,2,Y,Y,청라2동 행정복지센터,032-560-4619,2022-07-20,3560000,인천광역시 서구
가정1동 행정복지센터,인천광역시,서구,28260,인천광역시 서구 염곡로464번길 11,,37.52641513,126.6705158,1층 민원실 내,09:00,18:00,00:00,00:00,00:00,00:00,2,Y,Y,가정1동 행정복지센터,032-560-4603,2022-07-20,3560000,인천광역시 서구
검암경서동 행정복지센터,인천광역시,서구,28260,인천광역시 서구 승학로 480,인천광역시 서구 검암동 606-8,37.56441872,126.673601,1층 민원실 내,09:00,18:00,00:00,00:00,00:00,00:00,2,Y,Y,검암경서동 행정복지센터,032-560-4601,2022-07-20,3560000,인천광역시 서구
연희동 행정복지센터,인천광역시,서구,28260,인천광역시 서구 간촌로 12,인천광역시 서구 연희동 712,37.54899846,126.6782282,1층 민원실 내,09:00,18:00,00:00,00:00,00:00,00:00,2,Y,Y,연희동 행정복지센터,032-560-4602,2022-07-20,3560000,인천광역시 서구
청라1동 행정복지센터,인천광역시,서구,28260,인천광역시 서구 청라라임로 58,인천광역시 서구 청라동 165-5,37.53265854,126.6537394,1층 민원실 내,09:00,18:00,00:00,00:00,00:00,00:00,2,Y,Y,청라1동 행정복지센터,032-560-4618,2022-07-20,3560000,인천광역시 서구
가정2동 행정복지센터,인천광역시,서구,28260,,인천광역시 서구 가정동 284-338,37.52509167,126.6801348,1층 민원실 내,09:00,18:00,00:00,00:00,00:00,00:00,2,Y,Y,가정2동 행정복지센터,032-560-4604,2022-07-20,3560000,인천광역시 서구
가정3동 행정복지센터,인천광역시,서구,28260,인천광역시 서구 서달로179번길 12-16,인천광역시 서구 가정동 565-4,37.51554696,126.6778363,1층 민원실 내,09:00,18:00,00:00,00:00,00:00,00:00,2,Y,Y,가정3동 행정복지센터,032-560-4605,2022-07-20,3560000,인천광역시 서구
신현원창동 행정복지센터,인천광역시,서구,28260,인천광역시 서구 가정로335번길 3,인천광역시 서구 신현동 294,37.51460915,126.6722848,1층 민원실 내,09:00,18:00,00:00,00:00,00:00,00:00,2,Y,Y,신현원창동 행정복지센터,032-560-4606,2022-07-20,3560000,인천광역시 서구
석남1동 행정복지센터,인천광역시,서구,28260,인천광역시 서구 가정로294번길 17,인천광역시 서구 석남동 465-3,37.51118138,126.6747559,1층 민원실 내,09:00,18:00,00:00,00:00,00:00,00:00,2,Y,Y,석남1동 행정복지센터,032-560-4607,2022-07-20,3560000,인천광역시 서구
석남2동 행정복지센터,인천광역시,서구,28260,인천광역시 서구 거북로 116,인천광역시 서구 석남동 573,37.50250466,126.6746007,1층 민원실 내,09:00,18:00,00:00,00:00,00:00,00:00,2,Y,Y,석남2동 행정복지센터,032-560-4608,2022-07-20,3560000,인천광역시 서구
석남3동 행정복지센터,인천광역시,서구,28260,인천광역시 서구 서달로 107,인천광역시 서구 석남동 488-23,37.50820266,126.6782976,1층 민원실 내,09:00,18:00,00:00,00:00,00:00,00:00,2,Y,Y,석남3동 행정복지센터,032-560-4609,2022-07-20,3560000,인천광역시 서구
가좌1동 행정복지센터,인천광역시,서구,28260,인천광역시 서구 가정로112번길 10,인천광역시 서구 가좌동 145-19,37.49434393,126.672588,1층 민원실 내,09:00,18:00,00:00,00:00,00:00,00:00,2,Y,Y,가좌1동 행정복지센터,032-560-4610,2022-07-20,3560000,인천광역시 서구
가좌2동 행정복지센터,인천광역시,서구,28260,인천광역시 서구 장고개로309번길 4,인천광역시 서구 가좌동 30-105,37.49085455,126.6848496,1층 민원실 내,09:00,18:00,00:00,00:00,00:00,00:00,2,Y,Y,가좌2동 행정복지센터,032-560-4611,2022-07-20,3560000,인천광역시 서구
가좌3동 행정복지센터,인천광역시,서구,28260,인천광역시 서구 원적로57번길 4,인천광역시 서구 가좌동 212-13,37.49250983,126.6800417,1층 민원실 내,09:00,18:00,00:00,00:00,00:00,00:00,2,Y,Y,가좌3동 행정복지센터,032-560-4612,2022-07-20,3560000,인천광역시 서구
가좌4동 행정복지센터,인천광역시,서구,28260,인천광역시 서구 장고개로280번길 14,인천광역시 서구 가좌동 335-2,37.48748624,126.683403,1층 민원실 내,09:00,18:00,00:00,00:00,00:00,00:00,2,Y,Y,가좌4동 행정복지센터,032-560-4613,2022-07-20,3560000,인천광역시 서구
검단동 행정복지센터,인천광역시,서구,28260,인천광역시 서구 검단로529번길 14,인천광역시 서구 마전동 927-4,37.60508357,126.6618003,1층 민원실 내,09:00,18:00,00:00,00:00,00:00,00:00,2,Y,Y,검단동 행정복지센터,032-560-4614,2022-07-20,3560000,인천광역시 서구
원당동 행정복지센터,인천광역시,서구,28260,인천광역시 서구 고산로 24,인천광역시 서구 원당동 853-1,37.59507709,126.7017045,1층 민원실 내,09:00,18:00,00:00,00:00,00:00,00:00,2,Y,Y,원당동 행정복지센터,032-560-4616,2022-07-20,3560000,인천광역시 서구
양주시 보건소,경기도,양주시,41630,경기도 양주시 부흥로 1533(남방동),경기도 양주시 남방동 1-1,37.78535314,127.0449131,보건소 1층 엘리베이터 옆,09:00,18:00,00:00,00:00,00:00,00:00,2,N,N,경기도 양주시 보건소,031-8082-7117,2022-07-19,5590000,경기도 양주시
장흥면행정복지센터,경기도,양주시,41630,경기도 양주시 장흥면 권율로 7,경기도 양주시 장흥면 일영리 137-2,37.71788305,126.9408729,1층 사무실 입구,09:00,18:00,00:00,00:00,00:00,00:00,2,Y,N,경기도 양주시 장흥면행정복지센터,031-8082-7644,2022-07-19,5590000,경기도 양주시
백석읍행정복지센터,경기도,양주시,41630,경기도 양주시 백석읍 중앙로 223번길 46,경기도 양주시 백석읍 오산리 532,37.794777,126.985239,주민자치센터 1층 로비,09:00,21:00,00:00,00:00,00:00,00:00,2,Y,N,경기도 양주시 백석읍행정복지센터,031-8082-7512,2022-07-19,5590000,경기도 양주시
양주2동행정복지센터,경기도,양주시,41630,경기도 양주시 고읍로 77,경기도 양주시 만송동 695,37.796836,127.0803459,2층 로비,09:00,18:00,00:00,00:00,00:00,00:00,2,N,N,경기도 양주시 양주2동행정복지센터,031-8082-7732,2022-07-19,5590000,경기도 양주시
회천2동행정복지센터,경기도,양주시,41630,경기도 양주시 평화로 1475번길 39,경기도 양주시 덕계동 467-8,37.821655,127.046714,정문 도서반납기 옆,00:00,23:59,00:00,23:59,00:00,23:59,2,Y,N,경기도 양주시 회천2동행정복지센터,031-8082-7817,2022-07-19,5590000,경기도 양주시
회천3동행정복지센터,경기도,양주시,41630,경기도 양주시 회정로 143,경기도 양주시 덕정동 206-6,37.8378283,127.068944,행정복지센터 앞,00:00,23:59,00:00,23:59,00:00,23:59,2,Y,N,경기도 양주시 회천3동행정복지센터,031-8082-7833,2022-07-19,5590000,경기도 양주시
회천4동행정복지센터,경기도,양주시,41630,경기도 양주시 옥정로 397-7,경기도 양주시 옥정동 975-2,37.83724094,127.0901686,행정복지센터 1층 출입구,09:00,18:00,00:00,00:00,00:00,00:00,2,Y,N,경기도 양주시 회천4동행정복지센터,031-8082-7856,2022-07-19,5590000,경기도 양주시
양주희망도서관,경기도,양주시,41630,경기도 양주시 삼숭로38번길 78-47,경기도 양주시 삼숭동 202-36,37.795734,127.107258,희망도서관 3층 로비,09:00,22:00,09:00,22:00,09:00,22:00,2,Y,Y,경기도 양주시 평생교육진흥원,031-8082-7463,2022-07-19,5590000,경기도 양주시
양주도담학교,경기도,양주시,41630,경기도 양주시 옥정서로 5길 121,경기도 양주시 옥정동 866-11,37.8338562,127.0813175,도담학교 입구,09:00,16:30,00:00,00:00,00:00,00:00,2,Y,Y,경기도 양주시 장애인자립생활센터,031-841-6121,2022-07-19,5590000,경기도 양주시
양주시장애인자립생활센터,경기도,양주시,41630,"경기도 양주시 고읍남로191번길 69-21, 1층",경기도 양주시 광사동 680-7,37.79062124,127.0810022,양주시장애인자립생활센터 입구,09:00,18:00,00:00,00:00,00:00,00:00,2,Y,Y,경기도 양주시 장애인자립생활센터,031-841-6121,2022-07-19,5590000,경기도 양주시
감만종합사회복지관,부산광역시,남구,33101,부산광역시 남구 우암로 84-1,,35.11847034,129.0813474,건물밖 화단 인근(캐노피),0:00,23:59,0:00,23:59,0:00,23:59,2,N,Y,부산광역시 남구청,051-607-4331,2022-06-08,3310000,부산광역시 남구
양주시장애인자립생활센터 덕정교육관,경기도,양주시,41630,경기도 양주시 회정로 83-27,경기도 양주시 덕정동 280-26,37.83804835,127.0620595,덕정교육관 입구,09:00,18:00,13:00,15:00,13:00,15:00,2,Y,Y,경기도 양주시 장애인자립생활센터,031-841-6121,2022-07-19,5590000,경기도 양주시
양주시장애인복지회 양주시지회,경기도,양주시,41630,경기도 양주시 회정로 80,경기도 양주시 덕정동 276-5,37.83617061,127.0623442,장애인 식생활체험관 내,09:00,18:00,00:00,00:00,00:00,00:00,2,Y,Y,경기도 양주시 장애인복지회 양주시지회,031-878-5104,2022-07-19,5590000,경기도 양주시
양주국민체육센터,경기도,양주시,41630,경기도 양주시 고읍남로 172,경기도 양주시 광사동 700,37.78853622,127.0838517,양주국민체육센터 입구,06:00,22:00,09:00,18:00,09:00,18:00,2,Y,Y,경기도 양주도시공사,031-828-9717,2022-07-19,5590000,경기도 양주시
양주시에코스포츠센터,경기도,양주시,41630,경기도 양주시 은현면 은남로 177,경기도 양주시 은현면 하패리 1077-4,37.89483848,127.010668,에코스포츠센터 입구,06:00,21:00,09:00,17:00,09:00,17:00,2,Y,Y,경기도 양주도시공사,031-828-9717,2022-07-19,5590000,경기도 양주시
양주문화예술회관,경기도,양주시,41630,경기도 양주시 광적면 부흥로 618번길 303,경기도 양주시 광적면 광석리 132,37.81249951,126.9723084,1층 체육관 앞,09:00,22:00,09:00,22:00,09:00,18:00,2,Y,Y,경기도 양주도시공사,031-828-9717,2022-07-19,5590000,경기도 양주시
양주시장애인종합복지관,경기도,양주시,41630,경기도 양주시 고삼로43번길 29(삼숭동),경기도 양주시 삼숭동 640-30,37.8018199,127.0907186,1층 로비 출입구,09:00,18:00,09:00,16:00,00:00,00:00,2,Y,Y,경기도 양주시 장애인종합복지관,031-928-4090,2022-07-19,5590000,경기도 양주시
은현면행정복지센터,경기도,양주시,41630,경기도 양주시 은현면 은현로 66,경기도 양주시 은현면 선암리 341-2,37.8751019967,127.0244053227,은현면행정복지센터 쉽터,09:00,18:00,09:00,18:00,09:00,18:00,2,N,Y,경기도 양주시 은현면행정복지센터,031-8082-7552,2022-07-19,5590000,경기도 양주시
남면행정복지센터,경기도,양주시,41630,경기도 양주시 남면 개나리17길 6,경기도 양주시 남면 신산리 257-2,37.8976134090,126.9768945140,남면행정복지센터 우측 외벽,09:00,18:00,09:00,18:00,09:00,18:00,2,N,Y,경기도 양주시 남면행정복지센터,031-8082-7582,2022-07-19,5590000,경기도 양주시
광적면행정복지센터,경기도,양주시,41630,경기도 양주시 광적면 가래비길 93,경기도 양주시 광적면 가납리 848-2,37.8245929257,126.9836296063,광적면행정복지센터 주민자치센터 앞,09:00,18:00,09:00,18:00,09:00,18:00,2,N,Y,경기도 양주시 광적면행정복지센터,031-8082-7611,2022-07-19,5590000,경기도 양주시
전동휠체어급속충전기,경기도,과천시,41290,경기도 과천시 도서관길 36,경기도 과천시 별양동 2-5,37.43234075,126.9966062,과천시 중앙공원 분수대 옆,00:00,23:59,00:00,23:59,00:00,23:59,2,Y,Y,경기도 과천시청,02-502-5001,2022-07-20,3970000,경기도 과천시
전동휠체어급속충전기,경기도,과천시,41290,경기도 과천시 도서관길 36,경기도 과천시 별양동 2-5,37.43234075,126.9966062,과천시 중앙공원 도립도서관 앞,00:00,23:59,00:00,23:59,00:00,23:59,2,Y,Y,경기도 과천시청,02-502-5001,2022-07-20,3970000,경기도 과천시
전동휠체어급속충전기,경기도,과천시,41290,경기도 과천시 관문로 69,경기도 과천시 중앙동 1-3,37.43020067,126.9867943,과천시청 민원실 앞,00:00,23:59,00:00,23:59,00:00,23:59,2,N,Y,경기도 과천시청,02-502-5001,2022-07-20,3970000,경기도 과천시
전동휠체어급속충전기,경기도,과천시,41290,경기도 과천시 중앙로 24,경기도 과천시 갈현동 677,37.4187457,126.9897163,과천시 정보과학도서관 1층 전화박스 옆,00:00,23:59,00:00,23:59,00:00,23:59,2,N,Y,과천시정보과학도서관,02-2150-3008,2022-07-20,3970000,경기도 과천시
전동휠체어급속충전기,경기도,과천시,41290,경기도 과천시 중앙로 294,경기도 과천시 관문동 3,37.44136421,126.9963338,과천시 관문체육공원 자전거 거치대 옆,00:00,23:59,00:00,23:59,00:00,23:59,2,Y,Y,과천도시공사,02-504-7300,2022-07-20,3970000,경기도 과천시
전동휠체어급속충전기,대전광역시,서구,30170,대전광역시 서구 탄방로7번길97(탄방동),대전광역시 서구 탄방동 1041-1,36.3466137,127.3953791,탄방동행정복지센터,09:00,18:00,00:00,00:00,00:00,00:00,2,N,Y,대전광역시 서구 탄방동행정복지센터,042-288-5180,2022-06-08,3660000,대전광역시 서구
전동휠체어급속충전기,대전광역시,서구,30170,대전광역시 서구 들말4길 6,대전광역시 서구 가장동 40-13,36.33012787,127.3852022,가장동행정복지센터,09:00,18:00,00:00,00:00,00:00,00:00,2,N,Y,대전광역시 서구 가장동행정복지센터,042-288-5330,2022-06-08,3660000,대전광역시 서구
전동휠체어급속충전기,대전광역시,서구,30170,대전광역시 서구 신갈마로 191,대전광역시 서구 갈마동 316-3,36.35083043,127.3678194,갈마1동행정복지센터,09:00,18:00,00:00,00:00,00:00,00:00,2,N,Y,대전광역시 서구 갈마1동행정복지센터,042-288-5390,2022-06-08,3660000,대전광역시 서구
전동휠체어급속충전기,대전광역시,서구,30170,대전광역시 서구 계룡로 662번길6(용문동),대전광역시 서구 용문동 256-29,36.33677245,127.3943801,용문동행정복지센터,09:00,18:00,00:00,00:00,00:00,00:00,2,N,Y,대전광역시 서구 용문동행정복지센터,042-288-5150,2022-06-08,3660000,대전광역시 서구
전동휠체어급속충전기,대전광역시,서구,30170,대전광역시 서구 계룡로 626-1(용문동),대전광역시 서구 월평동 1181-2,36.33914855,127.3913373,월평1동행정복지센터,09:00,18:00,00:00,00:00,00:00,00:00,2,N,Y,대전광역시 서구 월평1동행정복지센터,042-288-5450,2022-06-08,3660000,대전광역시 서구
전동휠체어급속충전기,대전광역시,서구,30170,대전광역시 서구 월평북로 11,대전광역시 서구 월평동 218,36.36348638,127.3700719,월평종합사회복지관,09:00,18:00,00:00,00:00,00:00,00:00,2,N,N,대전지역자활센터협회,042-257-1890,2022-06-08,3660000,대전광역시 서구
전동휠체어급속충전기,대전광역시,서구,30170,대전광역시 서구 계백로 1093-32(가수원동),대전광역시 서구 가수원동 840,36.30531554,127.3451309,행복한우리복지관 다목적체육관,09:00,18:00,00:00,00:00,00:00,00:00,2,N,N,대전사회복지관협회,042-544-3626,2022-06-08,3660000,대전광역시 서구
전동휠체어급속충전기,대전광역시,서구,30170,대전광역시 서구 구봉로 13(관저동),대전광역시 서구 관저동 1140,36.29833539,127.3253842,관저종합사회복지관,09:00,18:00,00:00,00:00,00:00,00:00,2,N,N,대전사회복지관협회,042-544-3626,2022-06-08,3660000,대전광역시 서구
전동휠체어급속충전기,대전광역시,서구,30170,대전광역시 서구 계백로 1286(정림동),대전광역시 서구 정림동 13-1,36.30781435,127.3657945,정림종합사회복지관,09:00,18:00,00:00,00:00,00:00,00:00,2,N,N,대전사회복지관협회,042-544-3626,2022-06-08,3660000,대전광역시 서구
전동휠체어급속충전기,대전광역시,서구,30170,대전광역시 서구 대신1길 52(도마동),대전광역시 서구 도마동 183-6,36.3121324,127.3801544,한밭사랑복지센터,05:30,23:30,05:30,23:30,05:30,23:30,2,N,N,대전지역자활센터협회,042-257-1890,2022-06-08,3660000,대전광역시 서구
전동휠체어급속충전기,대전광역시,서구,30170,대전광역시 서구 계룡로 지하 644(용문동),대전광역시 서구 용문동 262,36.33826984,127.3932799,지하철역사 (용문역),05:30,23:30,05:30,23:30,05:30,23:30,2,N,N,대전지역자활센터협회,042-257-1890,2022-06-08,3660000,대전광역시 서구
전동휠체어급속충전기,대전광역시,서구,30170,대전광역시 서구 둔산중로 55 (둔산동),대전광역시 서구 둔산동 1547,36.35244266,127.3867152,지하철역사 (시청역),05:30,23:30,05:30,23:30,05:30,23:30,2,N,N,대전지역자활센터협회,042-257-1890,2022-06-08,3660000,대전광역시 서구
전동휠체어급속충전기,대전광역시,서구,30170,대전광역시 서구 한밭대로 지하 666(갈마동),대전광역시 서구 갈마동 1462,36.35776096,127.3728822,지하철역사 (갈마역),06:00,19:30,06:00,16:30,00:00,00:00,2,N,N,대전지체장애인협회,042-488-1181,2022-06-08,3660000,대전광역시 서구
전동휠체어급속충전기,대전광역시,서구,30170,대전광역시 서구 둔산서로 100(둔산동),대전광역시 서구 둔산동 1300,36.35505672,127.3833597,건강체련관,05:30,23:30,05:30,05:30,05:30,05:30,2,N,N,대전지체장애인협회,042-488-1181,2022-06-08,3660000,대전광역시 서구
가오리역,서울특별시,강북구,11305,서울특별시 강북구 수유동 338-47,서울특별시 강북구 수유동 338-47,37.64162714,127.016776,B1층 상선 승강장 엘리베이터 3호기 앞,06:00,23:00,06:00,23:00,06:00,23:00,2,Y,Y,서울특별시 강북구청,02-901-6677,2022-04-06,3080000,서울특별시 강북구
전동휠체어급속충전기,대전광역시,서구,30170,대전광역시 서구 문정로 18,대전광역시 서구 탄방동 604,36.34565648,127.3819813,지하철역사 (탄방역),05:30,23:30,05:30,05:30,05:30,05:30,2,N,N,대전지체장애인협회,042-488-1181,2022-06-08,3660000,대전광역시 서구
전동휠체어급속충전기,대전광역시,서구,30170,대전광역시 서구 한밭대로 744 (둔산동),대전광역시 서구 둔산동 1515-1,36.35772048,127.3813124,지하철역사 (정부청사역),09:00,18:00,00:00,00:00,00:00,00:00,2,N,N,대전지체장애인협회,042-488-1181,2022-06-08,3660000,대전광역시 서구
전동휠체어급속충전기,대전광역시,서구,30170,대전광역시 서구 둔산로 100(둔산동),대전광역시 서구 둔산동 1420,36.350385,127.3846399,대전광역시청,09:00,18:00,00:00,00:00,00:00,00:00,2,N,N,시립장애인종합복지관,042-540-3550,2022-06-08,3660000,대전광역시 서구
전동휠체어급속충전기,대전광역시,서구,30170,"대전광역시 서구 둔산남로 98-17, 5층(탄방동, 민족빌딩)",대전광역시 서구 탄방동 719,36.3482179,127.3886376,(사)모두사랑,09:00,18:00,00:00,00:00,00:00,00:00,2,N,N,시립장애인종합복지관,042-540-3550,2022-06-08,3660000,대전광역시 서구
전동휠체어급속충전기,대전광역시,서구,30170,"대전광역시 서구 도안동로 11번길 42, 502호(가수원동,지산프라자)",대전광역시 서구 가수원동 1032,36.30597844,127.3505189,서구장애인자립생활센터,09:00,18:00,00:00,00:00,00:00,00:00,2,N,N,시립장애인종합복지관,042-540-3550,2022-06-08,3660000,대전광역시 서구
전동휠체어급속충전기,대전광역시,서구,30170,"대전광역시 서구 둔산로31번길 66, 204호(둔산동)","대전광역시 서구 둔산동 1002, 다송빌딩 204",36.3546464,127.3778098,한밭장애인자립생활센터,09:00,18:00,00:00,00:00,00:00,00:00,2,N,N,시립장애인종합복지관,042-540-3550,2022-06-08,3660000,대전광역시 서구
전동휠체어급속충전기,대전광역시,서구,30170,"대전광역시 서구 월평서로 9, 3층(월평빌딩)",대전광역시 서구 월평동 1179,36.3543628,127.3577625,(사)대전여성장애인연대,09:00,18:00,00:00,00:00,00:00,00:00,2,N,N,대전지체장애인협회,042-488-1181,2022-06-08,3660000,대전광역시 서구
전동휠체어급속충전기,대전광역시,서구,30170,대전광역시 서구 계백로 1322(정림동),대전광역시 서구 정림동 716,36.30822671,127.3705107,대청병원,09:00,18:00,00:00,00:00,00:00,00:00,2,N,N,대전지체장애인협회,042-488-1181,2022-06-08,3660000,대전광역시 서구
전동휠체어급속충전기,대전광역시,서구,30170,"대전광역시 서구 청사로 136, 13층(월평동, 대전무역회관)",대전광역시 서구 월평동 282,36.35941855,127.3789057,한국장애인고용공단대전지역본부,09:00,18:00,00:00,00:00,00:00,00:00,2,N,N,대전지체장애인협회,042-488-1181,2022-06-08,3660000,대전광역시 서구
전동휠체어급속충전기,대전광역시,서구,30170,"대전광역시 서구 만년로 68번길 45, 201호(만년동, 세영빌딩 2층)",대전광역시 서구 만년동 362,36.365807,127.380766,대전시지체장애인협회,09:00,18:00,00:00,00:00,00:00,00:00,2,N,N,대전지체장애인협회,042-488-1181,2022-06-08,3660000,대전광역시 서구
인천광역시의회,인천광역시,남동구,28200,인천광역시 남동구 정각로 29,인천광역시 남동구 구월동 1138,37.456085358,126.706082821,시의회 로비 서문 방향,09:00,18:00,09:00,18:00,09:00,18:00,2,Y,Y,인천광역시의회,032-453-2572,2022-07-28,6280000,인천광역시
모라1동 행정복지센터,부산광역시,사상구,33900,부산광역시 사상구 모라로 93,,35.18700199,128.9898757,외부 무인택배보관함 옆,00:00,23:59,00:00,23:59,00:00,23:59,2,Y,Y,부산광역시 사상구,051-310-3035,2022-07-25,3390000,부산광역시 사상구
사상구생활사박물관,부산광역시,사상구,33900,부산광역시 사상구 낙동대로1258번길 36,,35.17202277,128.9787188,1층  엘리베이터 옆,00:00,23:59,00:00,23:59,00:00,23:59,2,Y,Y,부산광역시 사상구,051-310-5137,2022-07-25,3390000,부산광역시 사상구
사상구다누림센터,부산광역시,사상구,33900,부산광역시 사상구 가야대로196번길 51,,35.14744572,128.9948744,1층 로비.휴게공간 옆,00:00,23:59,00:00,23:59,00:00,23:59,2,Y,Y,부산광역시 사상구,051-310-4122,2022-07-25,3390000,부산광역시 사상구
사상구청소년수련관,부산광역시,사상구,33900,부산광역시 사상구 덕상로 129,,35.18331701,128.9905605,1층 로비 소강당 입구 앞,00:00,23:59,00:00,23:59,00:00,23:59,2,Y,Y,부산광역시 사상구,051-316-2214,2022-07-25,3390000,부산광역시 사상구
사상경찰서,부산광역시,사상구,33900,부산광역시 사상구 학감대로 264,,35.15434046,128.9914944,1층 로비 안내 옆,00:00,23:59,00:00,23:59,00:00,23:59,2,Y,Y,부산광역시 사상구,051-329-0321,2022-07-25,3390000,부산광역시 사상구
괘법르네시떼역(경전철),부산광역시,사상구,33900,부산광역시 사상구 광장로 9,,35.1632616,128.9776836,개찰구 옆 역무휴게실(고객지원실 앞),00:00,23:59,00:00,23:59,00:00,23:59,2,Y,Y,부산광역시 사상구,055-310-9031,2022-07-25,3390000,부산광역시 사상구
사상구장애인복지관,부산광역시,사상구,33900,부산광역시 사상구 모라로192번길 21,,35.1848992,129.000941,1층 야외휴게공간 옆,00:00,23:59,00:00,23:59,00:00,23:59,2,Y,Y,부산광역시 사상구,051-302-5523,2022-07-25,3390000,부산광역시 사상구
백양종합사회복지관,부산광역시,사상구,33900,부산광역시 사상구 모라로192번길 20-33,,35.18372824,128.9993481,1층 현관입구,00:00,23:59,00:00,23:59,00:00,23:59,2,Y,Y,부산광역시 사상구,051-305-4286,2022-07-25,3390000,부산광역시 사상구
좋은삼선병원,부산광역시,사상구,33900,부산광역시 사상구 가야대로 326,,35.15015109,129.0078086,1층 안쪽 휴게공간 옆,00:00,23:59,00:00,23:59,00:00,23:59,2,Y,Y,부산광역시 사상구,051-310-9405,2022-07-25,3390000,부산광역시 사상구
모라3동 행정복지센터,부산광역시,사상구,33900,부산광역시 사상구 모라로 110번길 60,,35.18417105,128.9939672,만선횟집 옆,00:00,23:59,00:00,23:59,00:00,23:59,4,Y,Y,부산광역시 사상구,051-310-3035,2022-07-25,3390000,부산광역시 사상구
양주시청,경기도,양주시,41630,경기도 양주시 부흥로 1533(남방동),경기도 양주시 남방동 1-1,37.78535314,127.0449131,종합민원실 주 출입구,09:00,18:00,09:00,18:00,09:00,18:00,2,N,Y,경기도 양주시청 민원봉사과,031-8082-5312,2022-07-19,5590000,경기도 양주시
마산의료원,경상남도,창원시,48121,경상남도 창원시 마산합포구 3·15대로 231,경상남도 창원시 마산합포구 장군동4가 3-6,35.19917166,128.5655599671,마산의료원 1층,08:30,16:30,08:30,16:30,08:30,16:30,2,Y,Y,마산의료원,055-249-1000,2022-06-08,5670000,경상남도 창원시
경남종합사회복지관,경상남도,창원시,48121,경상남도 창원시 마산회원구 팔용로 272,경상남도 창원시 마산회원구 구암동 31,35.24828189,128.6009494,경남종합사회복지관 1층,09:00,18:00,00:00,00:00,00:00,00:00,2,Y,Y,경남종합사회복지관,055-298-8600,2022-06-08,5670000,경상남도 창원시
마산역,경상남도,창원시,48121,경상남도 창원시 마산회원구 마산역광장로 18,경상남도 창원시 마산회원구 합성동 764-3,35.23610962,128.5772175,마산역 3층,09:00,00:00,09:00,00:00,09:00,00:00,2,Y,Y,마산역,1544-7788,2022-06-08,5670000,경상남도 창원시
진해종합사회복지관,경상남도,창원시,48121,경상남도 창원시 진해구 진해대로 1101,경상남도 창원시 진해구 풍호동 1,35.13143486,128.7101611,진해종합사회복지관 1층,09:00,18:00,00:00,00:00,00:00,00:00,2,Y,Y,진해종합사회복지관,055-540-0100,2022-06-08,5670000,경상남도 창원시
의창동행정복지센터,경상남도,창원시,48121,경상남도 창원시 의창구 읍성로 25,경상남도 창원시 의창구 북동 260,35.26535089,128.6208165,의창동행정복지센터 1층,09:00,18:00,00:00,00:00,00:00,00:00,2,Y,Y,경상남도 창원시 의창구청,055-212-5400,2022-06-08,5670000,경상남도 창원시
경상사회복지센터,경상남도,창원시,48121,경상남도 창원시 의창구 동읍 동읍로457번길 48,경상남도 창원시 의창구 동읍 화양리 1039-3,35.30959414,128.6511499859,경상사회복지센터 1층,09:00,18:00,00:00,00:00,00:00,00:00,2,Y,Y,경상사회복지센터,055-237-0880,2022-06-08,5670000,경상남도 창원시
상망동행정복지센터,경상북도,영주시,47210,경상북도 영주시 광복로 87,경상북도 영주시 하망동 154-3,36.828106,128.6283306,주민센터 입구 전면 도서관 입구 우측,00:00,23:59,00:00,23:59,00:00,23:59,2,N,N,경북지체장애인협회영주시지회 영주시장애인종합복지관,054-633-6415,2022-06-14,5090000,경상북도 영주시
북경주행정복지센터,경상북도,경주시,47130,경상북도 경주시 안강읍 비화원로 47,경상북도 경주시 안강읍 안강리 346-7,35.99012782,129.2270251,1층 현관,09:00,18:00,00:00,00:00,00:00,00:00,1,N,Y,경상북도 경주시청 장애인여성복지과,054-779-6649,2022-08-01,5050000,경상북도 경주시
외동읍행정복지센터,경상북도,경주시,47130,경상북도 경주시 외동읍 읍청사로 25,경상북도 경주시 외동읍 입실리 525,35.71724836,129.3270574,1층 현관,09:00,18:00,00:00,00:00,00:00,00:00,1,N,Y,경상북도 경주시청 장애인여성복지과,054-779-6649,2022-08-01,5050000,경상북도 경주시
경주시 교통약자 이동지원센터,경상북도,경주시,47130,경상북도 경주시 탈해로 57번길 14(동천동),경상북도 경주시 동천동 876-1,35.85176838,129.2287919,1층 현관,09:00,18:00,00:00,00:00,00:00,00:00,1,N,Y,경상북도 경주시청 장애인여성복지과,054-779-6649,2022-08-01,5050000,경상북도 경주시
경상북도지체장애인협회 경주시지회,경상북도,경주시,47130,경상북도 경주시 유림로5번길99-17(황성동),경상북도 경주시 황성동 792-9,35.88076872,129.2186753,1층 현관,09:00,18:00,00:00,00:00,00:00,00:00,1,N,Y,경상북도 경주시청 장애인여성복지과,054-779-6649,2022-08-01,5050000,경상북도 경주시
경주시장애인종합복지관,경상북도,경주시,47130,경상북도 경주시 유림로5번길 99-11(황성동),경상북도 경주시 황성동 792-1,35.88031531,129.2183832,1층 현관,09:00,18:00,00:00,00:00,00:00,00:00,1,N,Y,경상북도 경주시청 장애인여성복지과,054-779-6649,2022-08-01,5050000,경상북도 경주시
장애인기초재활교육센터,경상북도,경주시,47130,경상북도 경주시 유림로5번길99-17(황성동),경상북도 경주시 황성동 792-9,35.88076872,129.2186753,1층 현관,09:00,18:00,00:00,00:00,00:00,00:00,1,N,Y,경상북도 경주시청 장애인여성복지과,054-779-6649,2022-08-01,5050000,경상북도 경주시
충청남도홍성의료원,충청남도,홍성군,44800,충청남도 홍성군 홍성읍 조양로 224,충청남도 홍성군 홍성읍 고암리 572-3,36.59844481,126.6739086,홍성 의료원,09:00,18:00,00:00,00:00,00:00,00:00,1,Y,N,홍성의료원,041-630-6114,2022-07-28,4600000,충청남도 홍성군
지체장애인협회 홍성군지회,충청남도,홍성군,44800,충청남도 홍성군 홍성읍 조양로33번길 17,충청남도 홍성군 홍성읍 옥암리 62-8,36.59770889,126.6558164,지체장애인협회 홍성군지회,09:00,18:00,00:00,00:00,00:00,00:00,1,Y,N,지체장애인협회 홍성군지회,041-634-0267,2022-07-28,4600000,충청남도 홍성군
충남서부보훈지청,충청남도,홍성군,44800,충청남도 홍성군 홍성읍 문화로 91,충청남도 홍성군 홍성읍 오관리 488-2,36.59548981,126.6617871,충남서부보훈지청,09:00,18:00,00:00,00:00,00:00,00:00,1,Y,N,충남서보훈지청,041-630-3700,2022-07-28,4600000,충청남도 홍성군
홍성군장애인스포츠센터,충청남도,홍성군,44800,충청남도 홍성군 홍성읍 홍덕서로 78,충청남도 홍성군 홍성읍 소향리 410-1,36.60852241,126.643479,홍성군장애인스포츠센터,09:00,18:00,00:00,00:00,00:00,00:00,1,Y,N,홍성군장애인스포츠센터,041-631-9110,2022-07-28,4600000,충청남도 홍성군
대산읍행정복지센터,충청남도,서산시,44210,충청남도 서산시 대산읍 구진로 42-4,,36.93965067,126.434329,1층 현관,09:00,18:00,00:00,00:00,00:00,00:00,2,Y,Y,충청남도 서산시청,041-660-2344,2022-07-27,4530000,충청남도 서산시
